[{"type":"node","id":1655593651,"lat":41.7954448,"lon":-87.5838542,"tags":{"bench":"yes","bus":"yes","departures_board":"realtime","highway":"bus_stop","name":"S Hyde Park & 55th Street","network":"CTA","network:wikidata":"Q117309","network:wikipedia":"en:Chicago Transit Authority","operator":"Chicago Transit Authority","passenger_information_display":"realtime","public_transport":"platform","ref":"1518","shelter":"yes"}},{"type":"node","id":1655593654,"lat":41.7952928,"lon":-87.5843604,"tags":{"bench":"yes","bus":"yes","departures_board":"realtime","highway":"bus_stop","name":"55th Street & Hyde Park","network":"CTA","network:wikidata":"Q117309","network:wikipedia":"en:Chicago Transit Authority","operator":"Chicago Transit Authority","passenger_information_display":"realtime","public_transport":"platform","ref":"10566","shelter":"yes"}},{"type":"node","id":1655593667,"lat":41.7932127,"lon":-87.5838062,"tags":{"bench":"yes","bus":"yes","departures_board":"realtime","highway":"bus_stop","name":"S Hyde Park & 56th Street","network":"CTA","network:wikidata":"Q117309","network:wikipedia":"en:Chicago Transit Authority","operator":"Chicago Transit Authority","passenger_information_display":"realtime","public_transport":"platform","ref":"1517","shelter":"yes"}},{"type":"node","id":1655593669,"lat":41.7916107,"lon":-87.5837052,"tags":{"bench":"yes","bus":"yes","departures_board":"realtime","highway":"bus_stop","name":"Museum of Science & Industry","network":"CTA","network:wikidata":"Q117309","network:wikipedia":"en:Chicago Transit Authority","note":"Bus Tracker Sign is inside east vestibule","operator":"Chicago Transit Authority","public_transport":"platform","ref":"10565","shelter":"yes"}},{"type":"node","id":1662146624,"lat":41.7951039,"lon":-87.5877984,"tags":{"bench":"no","bus":"yes","highway":"bus_stop","local_ref":"C","name":"55th Street & Lake Park (Metra)","network":"CTA","network:wikidata":"Q117309","network:wikipedia":"en:Chicago Transit Authority","operator":"Chicago Transit Authority","public_transport":"platform","ref":"10563","shelter":"no"}},{"type":"node","id":1662146648,"lat":41.7994756,"lon":-87.5839522,"tags":{"bench":"yes","bus":"yes","highway":"bus_stop","name":"S Hyde Park & 53rd Street","network":"CTA","network:wikidata":"Q117309","network:wikipedia":"en:Chicago Transit Authority","operator":"Chicago Transit Authority","public_transport":"platform","ref":"1521","shelter":"yes"}},{"type":"node","id":1662146738,"lat":41.7952959,"lon":-87.5881176,"tags":{"bench":"no","bus":"yes","highway":"bus_stop","local_ref":"D","name":"55th Street & Lake Park (Metra)","network":"CTA","network:wikidata":"Q117309","network:wikipedia":"en:Chicago Transit Authority","operator":"Chicago Transit Authority","public_transport":"platform","ref":"10567","shelter":"no"}},{"type":"node","id":3926441702,"lat":41.8093259,"lon":-87.5916919,"tags":{"bench":"yes","bin":"yes","bus":"yes","highway":"bus_stop","name":"Lake Park & 47th Street Terminal","network":"CTA","network:wikidata":"Q117309","network:wikipedia":"en:Chicago Transit Authority","operator":"Chicago Transit Authority","public_transport":"platform","ref":"15915","shelter":"yes"}},{"type":"node","id":4158985377,"lat":41.816904,"lon":-87.6048112,"tags":{"bench":"no","bus":"yes","highway":"bus_stop","name":"43rd Street & Drexel","network":"CTA","network:wikidata":"Q117309","network:wikipedia":"en:Chicago Transit Authority","operator":"Chicago Transit Authority","public_transport":"platform","ref":"7996","shelter":"no"}},{"type":"node","id":4158985379,"lat":41.8169451,"lon":-87.6016717,"tags":{"bench":"no","bus":"yes","highway":"bus_stop","name":"43rd Street & Ellis","network":"CTA","network:wikidata":"Q117309","network:wikipedia":"en:Chicago Transit Authority","operator":"Chicago Transit Authority","public_transport":"platform","ref":"7994","shelter":"no"}},{"type":"node","id":4158985384,"lat":41.8166732,"lon":-87.6190899,"tags":{"bench":"no","bus":"yes","highway":"bus_stop","name":"43rd Street Green Line Station","network":"CTA","network:wikidata":"Q117309","network:wikipedia":"en:Chicago Transit Authority","operator":"Chicago Transit Authority","public_transport":"platform","ref":"8004","shelter":"yes"}},{"type":"node","id":4158985385,"lat":41.8166207,"lon":-87.6232556,"tags":{"bench":"no","bus":"yes","highway":"bus_stop","name":"43rd Street & Michigan","network":"CTA","network:wikidata":"Q117309","network:wikipedia":"en:Chicago Transit Authority","operator":"Chicago Transit Authority","public_transport":"platform","ref":"17552","shelter":"no"}},{"type":"node","id":4158985386,"lat":41.8168431,"lon":-87.5990088,"tags":{"bench":"no","bus":"yes","highway":"bus_stop","name":"43rd Street & Lake Park","network":"CTA","network:wikidata":"Q117309","network:wikipedia":"en:Chicago Transit Authority","operator":"Chicago Transit Authority","public_transport":"platform","ref":"14562","shelter":"no"}},{"type":"node","id":4158985387,"lat":41.8167542,"lon":-87.6139347,"tags":{"bench":"no","bus":"yes","highway":"bus_stop","name":"43rd Street & Vincennes","network":"CTA","network:wikidata":"Q117309","network:wikipedia":"en:Chicago Transit Authority","operator":"Chicago Transit Authority","public_transport":"platform","ref":"8001","shelter":"no"}},{"type":"node","id":4158985388,"lat":41.8165483,"lon":-87.6171897,"tags":{"bench":"no","bus":"yes","highway":"bus_stop","name":"43rd Street & King Drive","network":"CTA","network:wikidata":"Q117309","network:wikipedia":"en:Chicago Transit Authority","operator":"Chicago Transit Authority","public_transport":"platform","ref":"8054","shelter":"no"}},{"type":"node","id":4158986290,"lat":41.8166972,"lon":-87.6093334,"tags":{"bench":"no","bus":"yes","highway":"bus_stop","name":"43rd Street & Langley","network":"CTA","network:wikidata":"Q117309","network:wikipedia":"en:Chicago Transit Authority","operator":"Chicago Transit Authority","public_transport":"platform","ref":"8059","shelter":"no"}},{"type":"node","id":4158986291,"lat":41.8168441,"lon":-87.6090491,"tags":{"bench":"no","bus":"yes","highway":"bus_stop","name":"43rd Street & Langley","network":"CTA","network:wikidata":"Q117309","network:wikipedia":"en:Chicago Transit Authority","operator":"Chicago Transit Authority","public_transport":"platform","ref":"7998","shelter":"no"}},{"type":"node","id":4158986292,"lat":41.8167072,"lon":-87.6163823,"tags":{"bench":"no","bus":"yes","highway":"bus_stop","name":"43rd Street & King Drive","network":"CTA","network:wikidata":"Q117309","network:wikipedia":"en:Chicago Transit Authority","operator":"Chicago Transit Authority","public_transport":"platform","ref":"8002","shelter":"no"}},{"type":"node","id":4158986293,"lat":41.8165608,"lon":-87.6267428,"tags":{"bench":"no","bus":"yes","highway":"bus_stop","name":"43rd Street & State","network":"CTA","network:wikidata":"Q117309","network:wikipedia":"en:Chicago Transit Authority","operator":"Chicago Transit Authority","public_transport":"platform","ref":"17543","shelter":"no"}},{"type":"node","id":4158986295,"lat":41.8165219,"lon":-87.6297032,"tags":{"bench":"no","bin":"no","bus":"yes","highway":"bus_stop","lit":"yes","name":"43rd Street & LaSalle","network":"CTA","network:wikidata":"Q117309","network:wikipedia":"en:Chicago Transit Authority","operator":"Chicago Transit Authority","public_transport":"platform","ref":"8010","shelter":"no","tactile_paving":"no"}},{"type":"node","id":4158986297,"lat":41.816814,"lon":-87.6004317,"tags":{"bench":"no","bus":"yes","highway":"bus_stop","name":"43rd Street & Berkeley","network":"CTA","network:wikidata":"Q117309","network:wikipedia":"en:Chicago Transit Authority","operator":"Chicago Transit Authority","public_transport":"platform","ref":"16065","shelter":"no"}},{"type":"node","id":4158986298,"lat":41.8168012,"lon":-87.6020382,"tags":{"bench":"no","bus":"yes","highway":"bus_stop","name":"43rd Street & Ellis","network":"CTA","network:wikidata":"Q117309","network:wikipedia":"en:Chicago Transit Authority","operator":"Chicago Transit Authority","public_transport":"platform","ref":"8063","shelter":"no"}},{"type":"node","id":4158986300,"lat":41.8165493,"lon":-87.6186702,"tags":{"bench":"no","bus":"yes","highway":"bus_stop","name":"43rd Street & Calumet (Green Line)","network":"CTA","network:wikidata":"Q117309","network:wikipedia":"en:Chicago Transit Authority","operator":"Chicago Transit Authority","public_transport":"platform","ref":"16199","shelter":"no"}},{"type":"node","id":4158986302,"lat":41.8167972,"lon":-87.6115087,"tags":{"bench":"no","bus":"yes","highway":"bus_stop","name":"43rd Street & St. Lawrence","network":"CTA","network:wikidata":"Q117309","network:wikipedia":"en:Chicago Transit Authority","operator":"Chicago Transit Authority","public_transport":"platform","ref":"8000","shelter":"no"}},{"type":"node","id":4158986303,"lat":41.8167332,"lon":-87.6069329,"tags":{"bench":"no","bin":"no","bus":"yes","highway":"bus_stop","name":"43rd Street & Cottage Grove","network":"CTA","network:wikidata":"Q117309","network:wikipedia":"en:Chicago Transit Authority","operator":"Chicago Transit Authority","public_transport":"platform","ref":"8060","shelter":"no","tactile_paving":"no"}},{"type":"node","id":4158986305,"lat":41.8165672,"lon":-87.61629,"tags":{"bench":"no","bus":"yes","highway":"bus_stop","name":"43rd Street & King Drive","network":"CTA","network:wikidata":"Q117309","network:wikipedia":"en:Chicago Transit Authority","operator":"Chicago Transit Authority","public_transport":"platform","ref":"8055","shelter":"no"}},{"type":"node","id":4158986307,"lat":41.816701,"lon":-87.6173106,"tags":{"bench":"no","bus":"yes","highway":"bus_stop","name":"43rd Street & King Drive","network":"CTA","network:wikidata":"Q117309","network:wikipedia":"en:Chicago Transit Authority","operator":"Chicago Transit Authority","public_transport":"platform","ref":"8003","shelter":"no"}},{"type":"node","id":4158986308,"lat":41.8164693,"lon":-87.6227714,"tags":{"bench":"no","bus":"yes","highway":"bus_stop","name":"43rd Street & Michigan","network":"CTA","network:wikidata":"Q117309","network:wikipedia":"en:Chicago Transit Authority","operator":"Chicago Transit Authority","public_transport":"platform","ref":"17551","shelter":"no"}},{"type":"node","id":4158986309,"lat":41.8164233,"lon":-87.6259137,"tags":{"bench":"no","bus":"yes","highway":"bus_stop","name":"43rd Street & State","network":"CTA","network:wikidata":"Q117309","network:wikipedia":"en:Chicago Transit Authority","operator":"Chicago Transit Authority","public_transport":"platform","ref":"8049","shelter":"no"}},{"type":"node","id":4158986311,"lat":41.8167922,"lon":-87.60378,"tags":{"bench":"no","bus":"yes","highway":"bus_stop","name":"43rd Street & Drexel","network":"CTA","network:wikidata":"Q117309","network:wikipedia":"en:Chicago Transit Authority","operator":"Chicago Transit Authority","public_transport":"platform","ref":"8062","shelter":"no"}},{"type":"node","id":4158986312,"lat":41.8163329,"lon":-87.6293716,"tags":{"bench":"no","bin":"no","bus":"yes","highway":"bus_stop","name":"LaSalle & 43rd Street","network":"CTA","network:wikidata":"Q117309","network:wikipedia":"en:Chicago Transit Authority","operator":"Chicago Transit Authority","public_transport":"platform","ref":"6476","shelter":"no"}},{"type":"node","id":4158986313,"lat":41.8164977,"lon":-87.6210724,"tags":{"bench":"no","bus":"yes","highway":"bus_stop","name":"43rd Street & Indiana","network":"CTA","network:wikidata":"Q117309","network:wikipedia":"en:Chicago Transit Authority","operator":"Chicago Transit Authority","public_transport":"platform","ref":"17542","shelter":"no"}},{"type":"node","id":4158986314,"lat":41.8168921,"lon":-87.6065011,"tags":{"bench":"no","bus":"yes","highway":"bus_stop","name":"43rd Street & Cottage Grove","network":"CTA","network:wikidata":"Q117309","network:wikipedia":"en:Chicago Transit Authority","operator":"Chicago Transit Authority","public_transport":"platform","ref":"7997","shelter":"no"}},{"type":"node","id":4158986315,"lat":41.8166572,"lon":-87.611785,"tags":{"bench":"no","bus":"yes","highway":"bus_stop","name":"43rd Street & St. Lawrence","network":"CTA","network:wikidata":"Q117309","network:wikipedia":"en:Chicago Transit Authority","operator":"Chicago Transit Authority","public_transport":"platform","ref":"8057","shelter":"no"}},{"type":"node","id":4158986316,"lat":41.8166193,"lon":-87.6142432,"tags":{"bench":"no","bus":"yes","highway":"bus_stop","name":"43rd Street & Vincennes","network":"CTA","network:wikidata":"Q117309","network:wikipedia":"en:Chicago Transit Authority","operator":"Chicago Transit Authority","public_transport":"platform","ref":"8056","shelter":"no"}},{"type":"node","id":4158986317,"lat":41.8106818,"lon":-87.6298726,"tags":{"bench":"no","bus":"yes","highway":"bus_stop","name":"LaSalle & 46th Place","network":"CTA","network:wikidata":"Q117309","network:wikipedia":"en:Chicago Transit Authority","operator":"Chicago Transit Authority","public_transport":"platform","ref":"6473","shelter":"no"}},{"type":"node","id":4158986318,"lat":41.8166427,"lon":-87.621201,"tags":{"bench":"no","bus":"yes","highway":"bus_stop","name":"43rd Street & Indiana","network":"CTA","network:wikidata":"Q117309","network:wikipedia":"en:Chicago Transit Authority","operator":"Chicago Transit Authority","public_transport":"platform","ref":"8005","shelter":"no"}},{"type":"node","id":4158986319,"lat":41.8169971,"lon":-87.6007155,"tags":{"bench":"no","bus":"yes","highway":"bus_stop","name":"Berkeley & 43rd Street","network":"CTA","network:wikidata":"Q117309","network:wikipedia":"en:Chicago Transit Authority","operator":"Chicago Transit Authority","public_transport":"platform","ref":"7993","shelter":"no"}},{"type":"node","id":4158986320,"lat":41.8180884,"lon":-87.5994997,"tags":{"bench":"no","bus":"yes","highway":"bus_stop","name":"42nd Place & Lake Park","network":"CTA","network:wikidata":"Q117309","network:wikipedia":"en:Chicago Transit Authority","operator":"Chicago Transit Authority","public_transport":"platform","ref":"7991","shelter":"no"}},{"type":"node","id":4159679090,"lat":41.817108,"lon":-87.5976085,"tags":{"bench":"no","bus":"yes","highway":"bus_stop","name":"Oakenwald & 43rd Street","network":"CTA","network:wikidata":"Q117309","network:wikipedia":"en:Chicago Transit Authority","operator":"Chicago Transit Authority","public_transport":"platform","ref":"7989","shelter":"no"}},{"type":"node","id":4330488830,"lat":41.7950452,"lon":-87.5930171,"tags":{"bench":"no","bus":"yes","highway":"bus_stop","name":"55th Street & Kenwood","network":"CTA","network:wikidata":"Q117309","network:wikipedia":"en:Chicago Transit Authority","operator":"Chicago Transit Authority","public_transport":"platform","ref":"17563","shelter":"no"}},{"type":"node","id":4330488831,"lat":41.796881,"lon":-87.5838975,"tags":{"bench":"no","bus":"yes","highway":"bus_stop","name":"5440 S S Hyde Park","network":"CTA","network:wikidata":"Q117309","network:wikipedia":"en:Chicago Transit Authority","operator":"Chicago Transit Authority","public_transport":"platform","ref":"1519","shelter":"no"}},{"type":"node","id":4330488832,"lat":41.7955787,"lon":-87.590216,"tags":{"bench":"no","bus":"yes","highway":"bus_stop","name":"55th Street & Blackstone","network":"CTA","network:wikidata":"Q117309","network:wikipedia":"en:Chicago Transit Authority","operator":"Chicago Transit Authority","public_transport":"platform","ref":"10568","shelter":"no"}},{"type":"node","id":4330488833,"lat":41.7949844,"lon":-87.5962148,"tags":{"bench":"no","bus":"yes","highway":"bus_stop","name":"55th Street & Woodlawn","network":"CTA","network:wikidata":"Q117309","network:wikipedia":"en:Chicago Transit Authority","operator":"Chicago Transit Authority","public_transport":"platform","ref":"15752","shelter":"no"}},{"type":"node","id":4330488834,"lat":41.786125,"lon":-87.5938244,"tags":{"bench":"no","bus":"yes","highway":"bus_stop","name":"60th Street & Kimbark","network":"CTA","network:wikidata":"Q117309","network:wikipedia":"en:Chicago Transit Authority","operator":"Chicago Transit Authority","public_transport":"platform","ref":"15428","shelter":"no"}},{"type":"node","id":4330488835,"lat":41.7946794,"lon":-87.601491,"tags":{"bench":"no","bus":"yes","highway":"bus_stop","name":"Ellis & 55th Street","network":"CTA","network:wikidata":"Q117309","network:wikipedia":"en:Chicago Transit Authority","operator":"Chicago Transit Authority","public_transport":"platform","ref":"14033","shelter":"no"}},{"type":"node","id":4330488836,"lat":41.7948673,"lon":-87.5980857,"tags":{"bench":"no","bin":"no","bus":"yes","highway":"bus_stop","lit":"yes","name":"University & 55th Street","network":"CTA","network:wikidata":"Q117309","network:wikipedia":"en:Chicago Transit Authority","operator":"Chicago Transit Authority","public_transport":"platform","ref":"15816","shelter":"no","tactile_paving":"no"}},{"type":"node","id":4330488837,"lat":41.7880643,"lon":-87.5867524,"tags":{"bench":"yes","bus":"yes","highway":"bus_stop","name":"Stony Island & 59th Street","network":"CTA","network:wikidata":"Q117309","network:wikipedia":"en:Chicago Transit Authority","operator":"Chicago Transit Authority","public_transport":"platform","ref":"1658","shelter":"yes"}},{"type":"node","id":4330488839,"lat":41.7951202,"lon":-87.6010217,"tags":{"bench":"yes","bus":"yes","departures_board":"realtime","highway":"bus_stop","name":"55th Street & Ellis","network":"CTA","network:wikidata":"Q117309","network:wikipedia":"en:Chicago Transit Authority","operator":"Chicago Transit Authority","passenger_information_display":"realtime","public_transport":"platform","ref":"10575","shelter":"yes"}},{"type":"node","id":4330488840,"lat":41.7952032,"lon":-87.596361,"tags":{"bench":"no","bin":"yes","bus":"yes","highway":"bus_stop","lit":"yes","name":"55th Street & Woodlawn","network":"CTA","network:wikidata":"Q117309","network:wikipedia":"en:Chicago Transit Authority","operator":"Chicago Transit Authority","public_transport":"platform","ref":"10572","shelter":"no","tactile_paving":"no"}},{"type":"node","id":4330488841,"lat":41.7910917,"lon":-87.6013875,"tags":{"bench":"no","bus":"yes","highway":"bus_stop","name":"Ellis & 57th Street","network":"CTA","network:wikidata":"Q117309","network:wikipedia":"en:Chicago Transit Authority","operator":"Chicago Transit Authority","public_transport":"platform","ref":"14034","shelter":"no"}},{"type":"node","id":4330488842,"lat":41.794918,"lon":-87.6010159,"tags":{"bench":"yes","bus":"yes","highway":"bus_stop","name":"55th Street & Ellis","network":"CTA","network:wikidata":"Q117309","network:wikipedia":"en:Chicago Transit Authority","operator":"Chicago Transit Authority","public_transport":"platform","ref":"15193","shelter":"yes"}},{"type":"node","id":4330488843,"lat":41.7859679,"lon":-87.5913681,"tags":{"bench":"yes","bus":"yes","highway":"bus_stop","name":"Dorchester & 60th Street","network":"CTA","network:wikidata":"Q117309","network:wikipedia":"en:Chicago Transit Authority","operator":"Chicago Transit Authority","public_transport":"platform","ref":"13021","shelter":"no"}},{"type":"node","id":4330488844,"lat":41.7859006,"lon":-87.5988832,"tags":{"bench":"no","bus":"yes","highway":"bus_stop","name":"1111 E 60th Street","network":"CTA","network:wikidata":"Q117309","network:wikipedia":"en:Chicago Transit Authority","operator":"Chicago Transit Authority","public_transport":"platform","ref":"17057","shelter":"no"}},{"type":"node","id":4330488845,"lat":41.7959367,"lon":-87.5810199,"tags":{"bench":"no","bin":"no","bus":"yes","highway":"bus_stop","name":"Shoreland Dorm","network":"CTA","network:wikidata":"Q117309","network:wikipedia":"en:Chicago Transit Authority","operator":"Chicago Transit Authority","public_transport":"platform","ref":"15919","shelter":"no","tactile_paving":"no"}},{"type":"node","id":4330488846,"lat":41.7878063,"lon":-87.6010412,"tags":{"bench":"yes","bus":"yes","highway":"bus_stop","name":"59th Street & Ellis","network":"CTA","network:wikidata":"Q117309","network:wikipedia":"en:Chicago Transit Authority","operator":"Chicago Transit Authority","public_transport":"platform","ref":"13195","shelter":"yes"}},{"type":"node","id":4330488847,"lat":41.7913087,"lon":-87.5979747,"tags":{"bench":"no","bus":"yes","highway":"bus_stop","name":"University & 57th Street","network":"CTA","network:wikidata":"Q117309","network:wikipedia":"en:Chicago Transit Authority","operator":"Chicago Transit Authority","public_transport":"platform","ref":"16036","shelter":"no"}},{"type":"node","id":4330488848,"lat":41.787886,"lon":-87.5945293,"tags":{"bench":"no","bus":"yes","highway":"bus_stop","name":"59th Street & Kimbark","network":"CTA","network:wikidata":"Q117309","network:wikipedia":"en:Chicago Transit Authority","operator":"Chicago Transit Authority","public_transport":"platform","ref":"13197","shelter":"no"}},{"type":"node","id":4330488849,"lat":41.7952292,"lon":-87.5935584,"tags":{"bench":"no","bin":"no","bus":"yes","highway":"bus_stop","name":"55th Street & Kenwood","network":"CTA","network:wikidata":"Q117309","network:wikipedia":"en:Chicago Transit Authority","operator":"Chicago Transit Authority","public_transport":"platform","ref":"10570","shelter":"no"}},{"type":"node","id":4330488850,"lat":41.7875692,"lon":-87.605957,"tags":{"bench":"yes","bin":"no","bus":"yes","highway":"bus_stop","lit":"yes","name":"Cottage Grove & 59th Street","network":"CTA","network:wikidata":"Q117309","network:wikipedia":"en:Chicago Transit Authority","operator":"Chicago Transit Authority","public_transport":"platform","ref":"2498","shelter":"yes","tactile_paving":"no"}},{"type":"node","id":4330488851,"lat":41.7864026,"lon":-87.5913976,"tags":{"bench":"no","bus":"yes","highway":"bus_stop","name":"Dorchester & 60th Street","network":"CTA","network:wikidata":"Q117309","network:wikipedia":"en:Chicago Transit Authority","operator":"Chicago Transit Authority","public_transport":"platform","ref":"17423","shelter":"no"}},{"type":"node","id":4330488852,"lat":41.7855953,"lon":-87.6061776,"tags":{"bench":"yes","bin":"no","bus":"yes","highway":"bus_stop","lit":"yes","name":"Cottage Grove & 60th Street","network":"CTA","network:wikidata":"Q117309","network:wikipedia":"en:Chicago Transit Authority","operator":"Chicago Transit Authority","public_transport":"platform","ref":"2563","shelter":"yes","tactile_paving":"no"}},{"type":"node","id":4330488853,"lat":41.7949633,"lon":-87.5983297,"tags":{"bench":"no","bus":"yes","highway":"bus_stop","name":"55th Street & University","network":"CTA","network:wikidata":"Q117309","network:wikipedia":"en:Chicago Transit Authority","operator":"Chicago Transit Authority","public_transport":"platform","ref":"18018","shelter":"no"}},{"type":"node","id":4330488854,"lat":41.7949837,"lon":-87.5840525,"tags":{"bench":"yes","bus":"yes","highway":"bus_stop","name":"S Hyde Park & 55th Street","network":"CTA","network:wikidata":"Q117309","network:wikipedia":"en:Chicago Transit Authority","operator":"Chicago Transit Authority","public_transport":"platform","ref":"1654","shelter":"yes"}},{"type":"node","id":4330488855,"lat":41.7857801,"lon":-87.5915467,"tags":{"bench":"no","bus":"yes","highway":"bus_stop","name":"Dorchester & 60th Street","network":"CTA","network:wikidata":"Q117309","network:wikipedia":"en:Chicago Transit Authority","operator":"Chicago Transit Authority","public_transport":"platform","ref":"13023","shelter":"no"}},{"type":"node","id":4330488856,"lat":41.7894728,"lon":-87.6062181,"tags":{"bench":"no","bin":"no","bus":"yes","highway":"bus_stop","name":"Cottage Grove & 58th Street","network":"CTA","network:wikidata":"Q117309","network:wikipedia":"en:Chicago Transit Authority","operator":"Chicago Transit Authority","public_transport":"platform","ref":"2561","shelter":"no"}},{"type":"node","id":4330488857,"lat":41.7860147,"lon":-87.5937968,"tags":{"bench":"no","bus":"yes","highway":"bus_stop","name":"60th Street & Kenwood","network":"CTA","network:wikidata":"Q117309","network:wikipedia":"en:Chicago Transit Authority","operator":"Chicago Transit Authority","public_transport":"platform","ref":"17902","shelter":"no"}},{"type":"node","id":4330488858,"lat":41.7947402,"lon":-87.5904694,"tags":{"bench":"no","bin":"no","bus":"yes","highway":"bus_stop","name":"55th Street & Blackstone","network":"CTA","network:wikidata":"Q117309","network:wikipedia":"en:Chicago Transit Authority","operator":"Chicago Transit Authority","public_transport":"platform","ref":"10562","shelter":"no"}},{"type":"node","id":4330488859,"lat":41.7859416,"lon":-87.5964933,"tags":{"bench":"no","bus":"yes","highway":"bus_stop","name":"60th Street & Woodlawn","network":"CTA","network:wikidata":"Q117309","network:wikipedia":"en:Chicago Transit Authority","operator":"Chicago Transit Authority","public_transport":"platform","ref":"15433","shelter":"no"}},{"type":"node","id":4330488860,"lat":41.795185,"lon":-87.5947718,"tags":{"bench":"no","bus":"yes","highway":"bus_stop","name":"55th Street & Kimbark","network":"CTA","network:wikidata":"Q117309","network:wikipedia":"en:Chicago Transit Authority","operator":"Chicago Transit Authority","public_transport":"platform","ref":"10571","shelter":"no"}},{"type":"node","id":4330488861,"lat":41.7879671,"lon":-87.5865307,"tags":{"bench":"yes","bin":"no","bus":"yes","highway":"bus_stop","name":"Stony Island & 59th Street","network":"CTA","network:wikidata":"Q117309","network:wikipedia":"en:Chicago Transit Authority","operator":"Chicago Transit Authority","public_transport":"platform","ref":"1513","shelter":"yes"}},{"type":"node","id":4330488862,"lat":41.7966808,"lon":-87.5840754,"tags":{"bench":"no","bus":"yes","highway":"bus_stop","name":"5440 S S Hyde Park","network":"CTA","network:wikidata":"Q117309","network:wikipedia":"en:Chicago Transit Authority","operator":"Chicago Transit Authority","public_transport":"platform","ref":"1653","shelter":"no"}},{"type":"node","id":4330488863,"lat":41.7947357,"lon":-87.5917983,"tags":{"bench":"no","bus":"yes","highway":"bus_stop","name":"55th Street & Dorchester","network":"CTA","network:wikidata":"Q117309","network:wikipedia":"en:Chicago Transit Authority","operator":"Chicago Transit Authority","public_transport":"platform","ref":"10561","shelter":"no"}},{"type":"node","id":4330488864,"lat":41.7859845,"lon":-87.6010181,"tags":{"bench":"no","bus":"yes","highway":"bus_stop","name":"60th Street & Ellis","network":"CTA","network:wikidata":"Q117309","network:wikipedia":"en:Chicago Transit Authority","operator":"Chicago Transit Authority","public_transport":"platform","ref":"14032","shelter":"no"}},{"type":"node","id":4330488865,"lat":41.7993308,"lon":-87.5841478,"tags":{"bench":"yes","bus":"yes","highway":"bus_stop","name":"S Hyde Park & 53rd Street","network":"CTA","network:wikidata":"Q117309","network:wikipedia":"en:Chicago Transit Authority","operator":"Chicago Transit Authority","public_transport":"platform","ref":"1651","shelter":"yes"}},{"type":"node","id":4330488866,"lat":41.7950141,"lon":-87.5950806,"tags":{"bench":"no","bus":"yes","highway":"bus_stop","name":"55th Street & Kimbark","network":"CTA","network:wikidata":"Q117309","network:wikipedia":"en:Chicago Transit Authority","operator":"Chicago Transit Authority","public_transport":"platform","ref":"10559","shelter":"no"}},{"type":"node","id":4330488867,"lat":41.793561,"lon":-87.5840023,"tags":{"bench":"no","bus":"yes","highway":"bus_stop","name":"S Hyde Park & 56th Street","network":"CTA","network:wikidata":"Q117309","network:wikipedia":"en:Chicago Transit Authority","operator":"Chicago Transit Authority","public_transport":"platform","ref":"1655","shelter":"no"}},{"type":"node","id":4330488868,"lat":41.798407,"lon":-87.5839366,"tags":{"bench":"no","bus":"yes","highway":"bus_stop","name":"S Hyde Park & 54th Street","network":"CTA","network:wikidata":"Q117309","network:wikipedia":"en:Chicago Transit Authority","operator":"Chicago Transit Authority","public_transport":"platform","ref":"1520","shelter":"no"}},{"type":"node","id":4330488869,"lat":41.7896514,"lon":-87.5865637,"tags":{"bench":"yes","bus":"yes","highway":"bus_stop","name":"5800 S Stony Island","network":"CTA","network:wikidata":"Q117309","network:wikipedia":"en:Chicago Transit Authority","operator":"Chicago Transit Authority","public_transport":"platform","ref":"1514","shelter":"yes"}},{"type":"node","id":4330488870,"lat":41.7914122,"lon":-87.5866018,"tags":{"bench":"yes","bus":"yes","highway":"bus_stop","local_ref":"B","name":"Stony Island & 57th Drive","network":"CTA","network:wikidata":"Q117309","network:wikipedia":"en:Chicago Transit Authority","operator":"Chicago Transit Authority","public_transport":"platform","ref":"1515","shelter":"yes"}},{"type":"node","id":4330488871,"lat":41.7878326,"lon":-87.6062003,"tags":{"bench":"yes","bin":"no","bus":"yes","highway":"bus_stop","name":"Cottage Grove & 59th Street","network":"CTA","network:wikidata":"Q117309","network:wikipedia":"en:Chicago Transit Authority","operator":"Chicago Transit Authority","public_transport":"platform","ref":"2562","shelter":"yes"}},{"type":"node","id":4330488872,"lat":41.7911832,"lon":-87.5868181,"tags":{"bench":"yes","bus":"yes","highway":"bus_stop","local_ref":"A","name":"Stony Island & 57th Street","network":"CTA","network:wikidata":"Q117309","network:wikipedia":"en:Chicago Transit Authority","operator":"Chicago Transit Authority","public_transport":"platform","ref":"1656","shelter":"yes"}},{"type":"node","id":4330488873,"lat":41.7894897,"lon":-87.5963384,"tags":{"bench":"no","bin":"no","bus":"yes","highway":"bus_stop","lit":"yes","name":"Woodlawn & 58th Street","network":"CTA","network:wikidata":"Q117309","network:wikipedia":"en:Chicago Transit Authority","operator":"Chicago Transit Authority","public_transport":"platform","ref":"14041","shelter":"no","tactile_paving":"no"}},{"type":"node","id":4330488874,"lat":41.7860171,"lon":-87.5981939,"tags":{"bench":"no","bus":"yes","highway":"bus_stop","name":"60th Street & University","network":"CTA","network:wikidata":"Q117309","network:wikipedia":"en:Chicago Transit Authority","operator":"Chicago Transit Authority","public_transport":"platform","ref":"17903","shelter":"no"}},{"type":"node","id":4330488875,"lat":41.7951345,"lon":-87.5986102,"tags":{"bench":"no","bus":"yes","highway":"bus_stop","name":"55th Street & University","network":"CTA","network:wikidata":"Q117309","network:wikipedia":"en:Chicago Transit Authority","operator":"Chicago Transit Authority","public_transport":"platform","ref":"15753","shelter":"no"}},{"type":"node","id":4330488876,"lat":41.7977682,"lon":-87.5840983,"tags":{"bench":"no","bus":"yes","highway":"bus_stop","name":"S Hyde Park & 54th Street","network":"CTA","network:wikidata":"Q117309","network:wikipedia":"en:Chicago Transit Authority","operator":"Chicago Transit Authority","public_transport":"platform","ref":"1652","shelter":"no"}},{"type":"node","id":4330488877,"lat":41.7859086,"lon":-87.5973811,"tags":{"bench":"yes","bus":"yes","highway":"bus_stop","name":"60th Street & University","network":"CTA","network:wikidata":"Q117309","network:wikipedia":"en:Chicago Transit Authority","operator":"Chicago Transit Authority","public_transport":"platform","ref":"14020","shelter":"yes"}},{"type":"node","id":4330488878,"lat":41.7860886,"lon":-87.5961715,"tags":{"bench":"no","bin":"no","bus":"yes","highway":"bus_stop","name":"60th Street & Woodlawn","network":"CTA","network:wikidata":"Q117309","network:wikipedia":"en:Chicago Transit Authority","operator":"Chicago Transit Authority","public_transport":"platform","ref":"15429","shelter":"no"}},{"type":"node","id":4330488879,"lat":41.789362,"lon":-87.6059974,"tags":{"bench":"yes","bin":"yes","bus":"yes","highway":"bus_stop","name":"Cottage Grove & 58th Street","network":"CTA","network:wikidata":"Q117309","network:wikipedia":"en:Chicago Transit Authority","operator":"Chicago Transit Authority","public_transport":"platform","ref":"2499","shelter":"no"}},{"type":"node","id":4330488880,"lat":41.7955651,"lon":-87.5915732,"tags":{"bench":"no","bus":"yes","highway":"bus_stop","name":"55th Street & Dorchester","network":"CTA","network:wikidata":"Q117309","network:wikipedia":"en:Chicago Transit Authority","operator":"Chicago Transit Authority","public_transport":"platform","ref":"10569","shelter":"no"}},{"type":"node","id":4330488881,"lat":41.7878241,"lon":-87.6026054,"tags":{"bench":"yes","bus":"yes","highway":"bus_stop","name":"59th Street & Drexel","network":"CTA","network:wikidata":"Q117309","network:wikipedia":"en:Chicago Transit Authority","operator":"Chicago Transit Authority","public_transport":"platform","ref":"14023","shelter":"yes"}},{"type":"node","id":4330488882,"lat":41.785749,"lon":-87.6058804,"tags":{"bench":"yes","bin":"no","bus":"yes","highway":"bus_stop","lit":"yes","name":"Cottage Grove & 60th Street","network":"CTA","network:wikidata":"Q117309","network:wikipedia":"en:Chicago Transit Authority","operator":"Chicago Transit Authority","public_transport":"platform","ref":"2497","shelter":"yes","tactile_paving":"no"}},{"type":"node","id":4330488883,"lat":41.789378,"lon":-87.6013099,"tags":{"bench":"no","bin":"no","bus":"yes","highway":"bus_stop","lit":"yes","name":"5800 S Ellis","network":"CTA","network:wikidata":"Q117309","network:wikipedia":"en:Chicago Transit Authority","operator":"Chicago Transit Authority","public_transport":"platform","ref":"18012","shelter":"no","tactile_paving":"yes"}},{"type":"node","id":4330488884,"lat":41.7858766,"lon":-87.6007916,"tags":{"bench":"no","bus":"yes","highway":"bus_stop","name":"60th Street & Ellis","network":"CTA","network:wikidata":"Q117309","network:wikipedia":"en:Chicago Transit Authority","operator":"Chicago Transit Authority","public_transport":"platform","ref":"14019","shelter":"no"}},{"type":"node","id":4330508309,"lat":41.8021085,"lon":-87.596793,"tags":{"bench":"no","bin":"no","bus":"yes","highway":"bus_stop","lit":"yes","name":"Woodlawn & Hyde Park","network":"CTA","network:wikidata":"Q117309","network:wikipedia":"en:Chicago Transit Authority","operator":"Chicago Transit Authority","public_transport":"platform","ref":"15817","shelter":"no","tactile_paving":"no"}},{"type":"node","id":4330508310,"lat":41.7916552,"lon":-87.5963841,"tags":{"bench":"no","bin":"yes","bus":"yes","highway":"bus_stop","lit":"no","name":"Woodlawn & 57th Street","network":"CTA","network:wikidata":"Q117309","network:wikipedia":"en:Chicago Transit Authority","operator":"Chicago Transit Authority","public_transport":"platform","ref":"14040","shelter":"no","tactile_paving":"no"}},{"type":"node","id":4330508311,"lat":41.8024436,"lon":-87.5970521,"tags":{"bench":"yes","bin":"yes","bus":"yes","highway":"bus_stop","name":"E Hyde Park & Woodlawn","network":"CTA","network:wikidata":"Q117309","network:wikipedia":"en:Chicago Transit Authority","operator":"Chicago Transit Authority","public_transport":"platform","ref":"1530","shelter":"yes","tactile_paving":"no"}},{"type":"node","id":4330508312,"lat":41.802238,"lon":-87.5966321,"tags":{"bench":"no","bin":"no","bus":"yes","highway":"bus_stop","lit":"yes","name":"Woodlawn & Hyde Park","network":"CTA","network:wikidata":"Q117309","network:wikipedia":"en:Chicago Transit Authority","operator":"Chicago Transit Authority","public_transport":"platform","ref":"15818","shelter":"no","tactile_paving":"no"}},{"type":"node","id":4330508313,"lat":41.7932608,"lon":-87.5865353,"tags":{"bench":"no","bin":"yes","bus":"yes","highway":"bus_stop","name":"Stony Island & 56th Street","network":"CTA","network:wikidata":"Q117309","network:wikipedia":"en:Chicago Transit Authority","operator":"Chicago Transit Authority","public_transport":"platform","ref":"7130","shelter":"no","tactile_paving":"no"}},{"type":"node","id":4330508314,"lat":41.7927886,"lon":-87.5867675,"tags":{"bench":"no","bus":"yes","highway":"bus_stop","name":"Stony Island & 56th Street","network":"CTA","network:wikidata":"Q117309","network:wikipedia":"en:Chicago Transit Authority","operator":"Chicago Transit Authority","public_transport":"platform","ref":"7181","shelter":"no"}},{"type":"node","id":4330508315,"lat":41.8023035,"lon":-87.5964632,"tags":{"bench":"yes","bin":"yes","bus":"yes","highway":"bus_stop","lit":"yes","name":"E Hyde Park & Woodlawn","network":"CTA","network:wikidata":"Q117309","network:wikipedia":"en:Chicago Transit Authority","operator":"Chicago Transit Authority","public_transport":"platform","ref":"1642","shelter":"yes","tactile_paving":"no"}},{"type":"node","id":4330508316,"lat":41.8023445,"lon":-87.5930749,"tags":{"bench":"no","bin":"no","bus":"yes","highway":"bus_stop","lit":"yes","name":"E Hyde Park & Kenwood","network":"CTA","network:wikidata":"Q117309","network:wikipedia":"en:Chicago Transit Authority","operator":"Chicago Transit Authority","public_transport":"platform","ref":"1644","shelter":"no","tactile_paving":"no"}},{"type":"node","id":4330508317,"lat":41.786187,"lon":-87.5870405,"tags":{"bench":"no","bus":"yes","highway":"bus_stop","name":"60th Street & Stony Island","network":"CTA","network:wikidata":"Q117309","network:wikipedia":"en:Chicago Transit Authority","operator":"Chicago Transit Authority","public_transport":"platform","ref":"13022","shelter":"yes"}},{"type":"node","id":4330508318,"lat":41.7996943,"lon":-87.5965772,"tags":{"bench":"no","bin":"yes","bus":"yes","highway":"bus_stop","lit":"yes","name":"Woodlawn & 53rd Street","network":"CTA","network:wikidata":"Q117309","network:wikipedia":"en:Chicago Transit Authority","operator":"Chicago Transit Authority","public_transport":"platform","ref":"14039","shelter":"no","tactile_paving":"no"}},{"type":"node","id":4330508319,"lat":41.7991223,"lon":-87.601377,"tags":{"bench":"no","bin":"no","bus":"yes","highway":"bus_stop","lit":"yes","name":"Ellis & 53rd Street","network":"CTA","network:wikidata":"Q117309","network:wikipedia":"en:Chicago Transit Authority","operator":"Chicago Transit Authority","public_transport":"platform","ref":"14886","shelter":"no","tactile_paving":"no"}},{"type":"node","id":4330508320,"lat":41.7860146,"lon":-87.5864478,"tags":{"bench":"no","bus":"yes","highway":"bus_stop","name":"Stony Island & 60th Street","network":"CTA","network:wikidata":"Q117309","network:wikipedia":"en:Chicago Transit Authority","operator":"Chicago Transit Authority","public_transport":"platform","ref":"1512","shelter":"no"}},{"type":"node","id":4330508321,"lat":41.8024576,"lon":-87.5952718,"tags":{"bench":"no","bin":"no","bus":"yes","highway":"bus_stop","lit":"yes","name":"E Hyde Park & Kimbark","network":"CTA","network:wikidata":"Q117309","network:wikipedia":"en:Chicago Transit Authority","operator":"Chicago Transit Authority","public_transport":"platform","ref":"1529","shelter":"no","tactile_paving":"no"}},{"type":"node","id":4330508322,"lat":41.7948652,"lon":-87.5964547,"tags":{"bench":"no","bin":"no","bus":"yes","highway":"bus_stop","name":"Woodlawn & 55th Street","network":"CTA","network:wikidata":"Q117309","network:wikipedia":"en:Chicago Transit Authority","operator":"Chicago Transit Authority","public_transport":"platform","ref":"14043","shelter":"no","tactile_paving":"no"}},{"type":"node","id":4330508323,"lat":41.802325,"lon":-87.5946822,"tags":{"bench":"no","bin":"no","bus":"yes","highway":"bus_stop","lit":"yes","name":"E Hyde Park & Kimbark","network":"CTA","network:wikidata":"Q117309","network:wikipedia":"en:Chicago Transit Authority","operator":"Chicago Transit Authority","public_transport":"platform","ref":"1643","shelter":"no","tactile_paving":"no"}},{"type":"node","id":4330508324,"lat":41.7857817,"lon":-87.5866951,"tags":{"bench":"yes","bin":"no","bus":"yes","highway":"bus_stop","lit":"yes","name":"Stony Island & 60th Street","network":"CTA","network:wikidata":"Q117309","network:wikipedia":"en:Chicago Transit Authority","operator":"Chicago Transit Authority","public_transport":"platform","ref":"1659","shelter":"yes","tactile_paving":"no"}},{"type":"node","id":4330508325,"lat":41.8024736,"lon":-87.5935422,"tags":{"bench":"no","bin":"no","bus":"yes","highway":"bus_stop","lit":"yes","name":"E Hyde Park & Kenwood","network":"CTA","network:wikidata":"Q117309","network:wikipedia":"en:Chicago Transit Authority","operator":"Chicago Transit Authority","public_transport":"platform","ref":"1528","shelter":"no","tactile_paving":"no"}},{"type":"node","id":4330508326,"lat":41.7995738,"lon":-87.5967334,"tags":{"bench":"no","bin":"no","bus":"yes","highway":"bus_stop","lit":"yes","name":"Woodlawn & 53rd Street","network":"CTA","network:wikidata":"Q117309","network:wikipedia":"en:Chicago Transit Authority","operator":"Chicago Transit Authority","public_transport":"platform","ref":"14036","shelter":"no","tactile_paving":"no"}},{"type":"node","id":4336472817,"lat":41.8023846,"lon":-87.5901348,"tags":{"bench":"no","bin":"no","bus":"yes","highway":"bus_stop","name":"E Hyde Park & Blackstone","network":"CTA","network:wikidata":"Q117309","network:wikipedia":"en:Chicago Transit Authority","operator":"Chicago Transit Authority","public_transport":"platform","ref":"1646","shelter":"no","tactile_paving":"no"}},{"type":"node","id":4336472818,"lat":41.800902,"lon":-87.5844264,"tags":{"bench":"no","bus":"yes","highway":"bus_stop","name":"5200 S S Hyde Park","network":"CTA","network:wikidata":"Q117309","network:wikipedia":"en:Chicago Transit Authority","operator":"Chicago Transit Authority","public_transport":"platform","ref":"1522","shelter":"no"}},{"type":"node","id":4336472819,"lat":41.8024926,"lon":-87.5921691,"tags":{"bench":"no","bin":"no","bus":"yes","highway":"bus_stop","name":"E Hyde Park & Dorchester","network":"CTA","network:wikidata":"Q117309","network:wikipedia":"en:Chicago Transit Authority","operator":"Chicago Transit Authority","public_transport":"platform","ref":"1527","shelter":"no","tactile_paving":"no"}},{"type":"node","id":4336472820,"lat":41.8025176,"lon":-87.5903016,"tags":{"bench":"no","bin":"no","bus":"yes","highway":"bus_stop","name":"E Hyde Park & Blackstone","network":"CTA","network:wikidata":"Q117309","network:wikipedia":"en:Chicago Transit Authority","operator":"Chicago Transit Authority","public_transport":"platform","ref":"15671","shelter":"no"}},{"type":"node","id":4336472821,"lat":41.8024078,"lon":-87.5880699,"tags":{"bench":"no","bin":"yes","bus":"yes","highway":"bus_stop","lit":"yes","name":"E Hyde Park & Lake Park","network":"CTA","network:wikidata":"Q117309","network:wikipedia":"en:Chicago Transit Authority","operator":"Chicago Transit Authority","public_transport":"platform","ref":"1647","shelter":"no","tactile_paving":"no"}},{"type":"node","id":4336472822,"lat":41.8025789,"lon":-87.585689,"tags":{"bench":"yes","bin":"yes","bus":"yes","departures_board":"realtime","highway":"bus_stop","name":"E Hyde Park & East End","network":"CTA","network:wikidata":"Q117309","network:wikipedia":"en:Chicago Transit Authority","operator":"Chicago Transit Authority","public_transport":"platform","ref":"1523","shelter":"yes"}},{"type":"node","id":4336472823,"lat":41.8025702,"lon":-87.5868039,"tags":{"bench":"no","bin":"no","bus":"yes","highway":"bus_stop","name":"E Hyde Park & Cornell","network":"CTA","network:wikidata":"Q117309","network:wikipedia":"en:Chicago Transit Authority","operator":"Chicago Transit Authority","public_transport":"platform","ref":"1524","shelter":"no","tactile_paving":"no"}},{"type":"node","id":4336472824,"lat":41.8008955,"lon":-87.5846302,"tags":{"bench":"no","bus":"yes","highway":"bus_stop","name":"5200 S S Hyde Park","network":"CTA","network:wikidata":"Q117309","network:wikipedia":"en:Chicago Transit Authority","operator":"Chicago Transit Authority","public_transport":"platform","ref":"1650","shelter":"no"}},{"type":"node","id":4336472825,"lat":41.802119,"lon":-87.5851143,"tags":{"bench":"no","bus":"yes","highway":"bus_stop","name":"S Hyde Park & E Hyde Park Blvd","network":"CTA","network:wikidata":"Q117309","network:wikipedia":"en:Chicago Transit Authority","operator":"Chicago Transit Authority","public_transport":"platform","ref":"1649","shelter":"no"}},{"type":"node","id":4336472826,"lat":41.8025561,"lon":-87.5883377,"tags":{"bench":"yes","bin":"no","bus":"yes","departures_board":"realtime","highway":"bus_stop","lit":"yes","name":"E Hyde Park & Lake Park","network":"CTA","network:wikidata":"Q117309","network:wikipedia":"en:Chicago Transit Authority","operator":"Chicago Transit Authority","passenger_information_display":"realtime","public_transport":"platform","ref":"1525","shelter":"yes","tactile_paving":"no"}},{"type":"node","id":4336472827,"lat":41.8024304,"lon":-87.5861624,"tags":{"bench":"no","bus":"yes","highway":"bus_stop","name":"E Hyde Park & Cornell","network":"CTA","network:wikidata":"Q117309","network:wikipedia":"en:Chicago Transit Authority","operator":"Chicago Transit Authority","public_transport":"platform","ref":"1648","shelter":"no"}},{"type":"node","id":4336472828,"lat":41.8023712,"lon":-87.5915211,"tags":{"bench":"no","bus":"yes","highway":"bus_stop","name":"E Hyde Park & Dorchester","network":"CTA","network:wikidata":"Q117309","network:wikipedia":"en:Chicago Transit Authority","operator":"Chicago Transit Authority","public_transport":"platform","ref":"1645","shelter":"no"}},{"type":"node","id":4336512292,"lat":41.8043925,"lon":-87.5884784,"tags":{"bench":"no","bus":"yes","highway":"bus_stop","name":"5000 S Lake Park","network":"CTA","network:wikidata":"Q117309","network:wikipedia":"en:Chicago Transit Authority","operator":"Chicago Transit Authority","public_transport":"platform","ref":"7137","shelter":"no"}},{"type":"node","id":4336512293,"lat":41.8041843,"lon":-87.5886739,"tags":{"bench":"no","bin":"no","bus":"yes","highway":"bus_stop","name":"5000 S Lake Park","network":"CTA","network:wikidata":"Q117309","network:wikipedia":"en:Chicago Transit Authority","operator":"Chicago Transit Authority","public_transport":"platform","ref":"7175","shelter":"no"}},{"type":"node","id":4336523722,"lat":41.7983127,"lon":-87.5871211,"tags":{"bench":"no","bus":"yes","highway":"bus_stop","name":"Lake Park & 54th Street","network":"CTA","network:wikidata":"Q117309","network:wikipedia":"en:Chicago Transit Authority","operator":"Chicago Transit Authority","public_transport":"platform","ref":"7133","shelter":"no"}},{"type":"node","id":4336523723,"lat":41.8088489,"lon":-87.5915857,"tags":{"bench":"no","bin":"no","bus":"yes","highway":"bus_stop","name":"Lake Park & 47th Street","network":"CTA","network:wikidata":"Q117309","network:wikipedia":"en:Chicago Transit Authority","operator":"Chicago Transit Authority","public_transport":"platform","ref":"5033","shelter":"no"}},{"type":"node","id":4336523724,"lat":41.807769,"lon":-87.5905795,"tags":{"bench":"no","bus":"yes","highway":"bus_stop","name":"Lake Park & 48th Street","network":"CTA","network:wikidata":"Q117309","network:wikipedia":"en:Chicago Transit Authority","operator":"Chicago Transit Authority","public_transport":"platform","ref":"5034","shelter":"no"}},{"type":"node","id":4336523725,"lat":41.8011534,"lon":-87.5876688,"tags":{"bench":"no","bus":"yes","highway":"bus_stop","name":"Lake Park & 52nd Street","network":"CTA","network:wikidata":"Q117309","network:wikipedia":"en:Chicago Transit Authority","operator":"Chicago Transit Authority","public_transport":"platform","ref":"7176","shelter":"no"}},{"type":"node","id":4336523726,"lat":41.801176,"lon":-87.5874099,"tags":{"bench":"no","bus":"yes","highway":"bus_stop","name":"Lake Park & 52nd Street","network":"CTA","network:wikidata":"Q117309","network:wikipedia":"en:Chicago Transit Authority","operator":"Chicago Transit Authority","public_transport":"platform","ref":"7135","shelter":"no"}},{"type":"node","id":4336523727,"lat":41.79376,"lon":-87.5877407,"tags":{"bench":"no","bus":"yes","highway":"bus_stop","name":"Lake Park & 56th Street","network":"CTA","network:wikidata":"Q117309","network:wikipedia":"en:Chicago Transit Authority","operator":"Chicago Transit Authority","public_transport":"platform","ref":"7131","shelter":"no"}},{"type":"node","id":4336523728,"lat":41.7994335,"lon":-87.5871751,"tags":{"bench":"no","bin":"no","bus":"yes","highway":"bus_stop","name":"Lake Park & 53rd Street","network":"CTA","network:wikidata":"Q117309","network:wikipedia":"en:Chicago Transit Authority","operator":"Chicago Transit Authority","public_transport":"platform","ref":"7134","shelter":"no"}},{"type":"node","id":4336523729,"lat":41.7991985,"lon":-87.5874153,"tags":{"bench":"no","bin":"no","bus":"yes","highway":"bus_stop","name":"Lake Park & 53rd Street","network":"CTA","network:wikidata":"Q117309","network:wikipedia":"en:Chicago Transit Authority","operator":"Chicago Transit Authority","public_transport":"platform","ref":"17646","shelter":"no"}},{"type":"node","id":4336523730,"lat":41.8057347,"lon":-87.5893407,"tags":{"bench":"no","bin":"no","bus":"yes","highway":"bus_stop","name":"Lake Park & 49th Street","network":"CTA","network:wikidata":"Q117309","network:wikipedia":"en:Chicago Transit Authority","operator":"Chicago Transit Authority","public_transport":"platform","ref":"5035","shelter":"no"}},{"type":"node","id":4336523731,"lat":41.7982134,"lon":-87.5873772,"tags":{"bench":"no","bus":"yes","highway":"bus_stop","name":"Lake Park & 54th Street","network":"CTA","network:wikidata":"Q117309","network:wikipedia":"en:Chicago Transit Authority","operator":"Chicago Transit Authority","public_transport":"platform","ref":"7178","shelter":"no"}},{"type":"node","id":4336523732,"lat":41.8057543,"lon":-87.5890741,"tags":{"bench":"yes","bin":"yes","bus":"yes","highway":"bus_stop","name":"Lake Park & 49th Street","network":"CTA","network:wikidata":"Q117309","network:wikipedia":"en:Chicago Transit Authority","operator":"Chicago Transit Authority","public_transport":"platform","ref":"5038","shelter":"yes"}},{"type":"node","id":4336523733,"lat":41.8080637,"lon":-87.5904761,"tags":{"bench":"yes","bin":"yes","bus":"yes","highway":"bus_stop","name":"Lake Park & 48th Street","network":"CTA","network:wikidata":"Q117309","network:wikipedia":"en:Chicago Transit Authority","operator":"Chicago Transit Authority","public_transport":"platform","ref":"5039","shelter":"yes"}},{"type":"node","id":4336523734,"lat":41.7953784,"lon":-87.5876303,"tags":{"bench":"yes","bus":"yes","highway":"bus_stop","name":"Lake Park & 55th Street","network":"CTA","network:wikidata":"Q117309","network:wikipedia":"en:Chicago Transit Authority","operator":"Chicago Transit Authority","public_transport":"platform","ref":"7179","shelter":"no"}},{"type":"node","id":4336523735,"lat":41.7950464,"lon":-87.587452,"tags":{"bench":"no","bus":"yes","highway":"bus_stop","name":"Lake Park & 55th Street","network":"CTA","network:wikidata":"Q117309","network:wikipedia":"en:Chicago Transit Authority","operator":"Chicago Transit Authority","public_transport":"platform","ref":"7132","shelter":"no"}},{"type":"node","id":4336523736,"lat":41.7935104,"lon":-87.5880253,"tags":{"bench":"no","bus":"yes","highway":"bus_stop","name":"Lake Park & 56th Street","network":"CTA","network:wikidata":"Q117309","network:wikipedia":"en:Chicago Transit Authority","operator":"Chicago Transit Authority","public_transport":"platform","ref":"7180","shelter":"no"}},{"type":"node","id":4336523737,"lat":41.8091443,"lon":-87.5916444,"tags":{"bench":"yes","bin":"yes","bus":"yes","departures_board":"realtime","highway":"bus_stop","name":"Lake Park & 47th Street","network":"CTA","network:wikidata":"Q117309","network:wikipedia":"en:Chicago Transit Authority","operator":"Chicago Transit Authority","passenger_information_display":"realtime","public_transport":"platform","ref":"5040","shelter":"yes","tactile_paving":"no"}},{"type":"node","id":4336542578,"lat":41.7863425,"lon":-87.6065295,"tags":{"bench":"no","bin":"no","bus":"yes","highway":"bus_stop","lit":"yes","name":"Midway Plaisance & Cottage Grove","network":"CTA","network:wikidata":"Q117309","network:wikipedia":"en:Chicago Transit Authority","operator":"Chicago Transit Authority","public_transport":"platform","ref":"14510","shelter":"no","tactile_paving":"no"}},{"type":"node","id":4336542579,"lat":41.7950943,"lon":-87.6037169,"tags":{"bench":"yes","bus":"yes","highway":"bus_stop","name":"55th Street & Drexel","network":"CTA","network:wikidata":"Q117309","network:wikipedia":"en:Chicago Transit Authority","operator":"Chicago Transit Authority","public_transport":"platform","ref":"10577","shelter":"no"}},{"type":"node","id":4336542580,"lat":41.8003533,"lon":-87.6062462,"tags":{"bench":"no","bin":"no","bus":"yes","highway":"bus_stop","lit":"yes","name":"Cottage Grove & 52nd Street","network":"CTA","network:wikidata":"Q117309","network:wikipedia":"en:Chicago Transit Authority","operator":"Chicago Transit Authority","public_transport":"platform","ref":"2505","shelter":"no","tactile_paving":"no"}},{"type":"node","id":4336542581,"lat":41.8003963,"lon":-87.6064675,"tags":{"bench":"no","bin":"no","bus":"yes","highway":"bus_stop","lit":"yes","name":"Cottage Grove & 52nd Street","network":"CTA","network:wikidata":"Q117309","network:wikipedia":"en:Chicago Transit Authority","operator":"Chicago Transit Authority","public_transport":"platform","ref":"2555","shelter":"no","tactile_paving":"no"}},{"type":"node","id":4336542582,"lat":41.7985477,"lon":-87.6064287,"tags":{"bench":"no","bin":"no","bus":"yes","highway":"bus_stop","name":"Cottage Grove & 53rd Street","network":"CTA","network:wikidata":"Q117309","network:wikipedia":"en:Chicago Transit Authority","operator":"Chicago Transit Authority","public_transport":"platform","ref":"2556","shelter":"no"}},{"type":"node","id":4336542583,"lat":41.7915119,"lon":-87.6062823,"tags":{"bench":"yes","bin":"no","bus":"yes","highway":"bus_stop","name":"Cottage Grove & 57th Street","network":"CTA","network:wikidata":"Q117309","network:wikipedia":"en:Chicago Transit Authority","operator":"Chicago Transit Authority","public_transport":"platform","ref":"2560","shelter":"yes","tactile_paving":"no"}},{"type":"node","id":4336542584,"lat":41.785932,"lon":-87.6058079,"tags":{"bench":"no","bin":"no","bus":"yes","highway":"bus_stop","lit":"yes","name":"60th Street & Cottage Grove","network":"CTA","network:wikidata":"Q117309","network:wikipedia":"en:Chicago Transit Authority","operator":"Chicago Transit Authority","public_transport":"platform","ref":"15431","shelter":"no","tactile_paving":"no"}},{"type":"node","id":4336542585,"lat":41.7930768,"lon":-87.6063041,"tags":{"bench":"yes","bin":"no","bus":"yes","highway":"bus_stop","name":"Cottage Grove & 56th Street","network":"CTA","network:wikidata":"Q117309","network:wikipedia":"en:Chicago Transit Authority","operator":"Chicago Transit Authority","public_transport":"platform","ref":"2559","shelter":"no","tactile_paving":"no"}},{"type":"node","id":4336542586,"lat":41.7858285,"lon":-87.6055116,"tags":{"bench":"no","bin":"no","bus":"yes","highway":"bus_stop","lit":"yes","name":"60th Street & Cottage Grove","network":"CTA","network:wikidata":"Q117309","network:wikipedia":"en:Chicago Transit Authority","operator":"Chicago Transit Authority","public_transport":"platform","ref":"15432","shelter":"no","tactile_paving":"no"}},{"type":"node","id":4336542587,"lat":41.7858576,"lon":-87.6035347,"tags":{"bench":"no","bin":"no","bus":"yes","highway":"bus_stop","lit":"yes","name":"915 E 60th Street","network":"CTA","network:wikidata":"Q117309","network:wikipedia":"en:Chicago Transit Authority","operator":"Chicago Transit Authority","public_transport":"platform","ref":"18050","shelter":"no","tactile_paving":"no"}},{"type":"node","id":4336542588,"lat":41.7930677,"lon":-87.606086,"tags":{"bench":"no","bin":"no","bus":"yes","highway":"bus_stop","name":"Cottage Grove & 56th Street","network":"CTA","network:wikidata":"Q117309","network:wikipedia":"en:Chicago Transit Authority","operator":"Chicago Transit Authority","public_transport":"platform","ref":"2501","shelter":"no"}},{"type":"node","id":4336543489,"lat":41.7954043,"lon":-87.6061309,"tags":{"bench":"yes","bin":"no","bus":"yes","highway":"bus_stop","name":"Cottage Grove & 55th Street","network":"CTA","network:wikidata":"Q117309","network:wikipedia":"en:Chicago Transit Authority","operator":"Chicago Transit Authority","public_transport":"platform","ref":"15148","shelter":"yes"}},{"type":"node","id":4336543490,"lat":41.7951497,"lon":-87.6063585,"tags":{"bench":"yes","bin":"no","bus":"yes","highway":"bus_stop","name":"Cottage Grove & 55th Street","network":"CTA","network:wikidata":"Q117309","network:wikipedia":"en:Chicago Transit Authority","operator":"Chicago Transit Authority","public_transport":"platform","ref":"2558","shelter":"yes"}},{"type":"node","id":4336543491,"lat":41.7966833,"lon":-87.6061625,"tags":{"bench":"no","bin":"no","bus":"yes","highway":"bus_stop","name":"Cottage Grove & 54th Street","network":"CTA","network:wikidata":"Q117309","network:wikipedia":"en:Chicago Transit Authority","operator":"Chicago Transit Authority","public_transport":"platform","ref":"2503","shelter":"no"}},{"type":"node","id":4336543492,"lat":41.7916187,"lon":-87.606056,"tags":{"bench":"no","bus":"yes","highway":"bus_stop","name":"Cottage Grove & 57th Street","network":"CTA","network:wikidata":"Q117309","network:wikipedia":"en:Chicago Transit Authority","operator":"Chicago Transit Authority","public_transport":"platform","ref":"15164","shelter":"no"}},{"type":"node","id":4336543493,"lat":41.7969097,"lon":-87.6063941,"tags":{"bench":"no","bin":"no","bus":"yes","highway":"bus_stop","name":"Cottage Grove & 54th Street","network":"CTA","network:wikidata":"Q117309","network:wikipedia":"en:Chicago Transit Authority","operator":"Chicago Transit Authority","public_transport":"platform","ref":"2557","shelter":"no","tactile_paving":"no"}},{"type":"node","id":4336543494,"lat":41.7948597,"lon":-87.6057101,"tags":{"bench":"no","bus":"yes","highway":"bus_stop","name":"55th Street & Cottage Grove","network":"CTA","network:wikidata":"Q117309","network:wikipedia":"en:Chicago Transit Authority","operator":"Chicago Transit Authority","public_transport":"platform","ref":"10552","shelter":"no"}},{"type":"node","id":4336543495,"lat":41.7949036,"lon":-87.603693,"tags":{"bench":"no","bus":"yes","highway":"bus_stop","name":"55th Street & Drexel","network":"CTA","network:wikidata":"Q117309","network:wikipedia":"en:Chicago Transit Authority","operator":"Chicago Transit Authority","public_transport":"platform","ref":"10553","shelter":"no"}},{"type":"node","id":4336543496,"lat":41.7950643,"lon":-87.6060022,"tags":{"bench":"no","bus":"yes","highway":"bus_stop","name":"55th Street & Cottage Grove","network":"CTA","network:wikidata":"Q117309","network:wikipedia":"en:Chicago Transit Authority","operator":"Chicago Transit Authority","public_transport":"platform","ref":"10578","shelter":"no"}},{"type":"node","id":4336543497,"lat":41.7984969,"lon":-87.6061942,"tags":{"bench":"yes","bin":"no","bus":"yes","highway":"bus_stop","name":"Cottage Grove & 53rd Street","network":"CTA","network:wikidata":"Q117309","network:wikipedia":"en:Chicago Transit Authority","operator":"Chicago Transit Authority","public_transport":"platform","ref":"2504","shelter":"yes","tactile_paving":"no"}},{"type":"node","id":4336547987,"lat":41.8023798,"lon":-87.6045623,"tags":{"bench":"yes","bin":"yes","bus":"yes","highway":"bus_stop","lit":"yes","name":"E Hyde Park & Drexel","network":"CTA","network:wikidata":"Q117309","network:wikipedia":"en:Chicago Transit Authority","operator":"Chicago Transit Authority","public_transport":"platform","ref":"14757","shelter":"yes","tactile_paving":"no"}},{"type":"node","id":4336547988,"lat":41.8022561,"lon":-87.6009639,"tags":{"bench":"no","bin":"no","bus":"yes","highway":"bus_stop","lit":"yes","name":"E Hyde Park & Ellis","network":"CTA","network:wikidata":"Q117309","network:wikipedia":"en:Chicago Transit Authority","operator":"Chicago Transit Authority","public_transport":"platform","ref":"1639","shelter":"no","tactile_paving":"no"}},{"type":"node","id":4336581989,"lat":41.802379,"lon":-87.6019387,"tags":{"bench":"no","bin":"no","bus":"yes","highway":"bus_stop","lit":"yes","name":"E Hyde Park & Ellis","network":"CTA","network:wikidata":"Q117309","network:wikipedia":"en:Chicago Transit Authority","operator":"Chicago Transit Authority","public_transport":"platform","ref":"1533","shelter":"no","tactile_paving":"no"}},{"type":"node","id":4336581990,"lat":41.8022225,"lon":-87.6044977,"tags":{"bench":"no","bin":"no","bus":"yes","highway":"bus_stop","lit":"yes","name":"51st Street & Drexel Square","network":"CTA","network:wikidata":"Q117309","network:wikipedia":"en:Chicago Transit Authority","operator":"Chicago Transit Authority","public_transport":"platform","ref":"1637","shelter":"no","tactile_paving":"no"}},{"type":"node","id":4336581991,"lat":41.802222,"lon":-87.6034908,"tags":{"bench":"yes","bin":"yes","bus":"yes","highway":"bus_stop","lit":"yes","name":"E Hyde Park & Drexel","network":"CTA","network:wikidata":"Q117309","network:wikipedia":"en:Chicago Transit Authority","operator":"Chicago Transit Authority","public_transport":"platform","ref":"1638","shelter":"yes","tactile_paving":"no"}},{"type":"node","id":4336581992,"lat":41.8024088,"lon":-87.60656,"tags":{"bench":"yes","bin":"no","bus":"yes","departures_board":"realtime","highway":"bus_stop","name":"Cottage Grove & 51st Street","network":"CTA","network:wikidata":"Q117309","network:wikipedia":"en:Chicago Transit Authority","operator":"Chicago Transit Authority","passenger_information_display":"realtime","public_transport":"platform","ref":"2553","shelter":"yes"}},{"type":"node","id":4336581993,"lat":41.782511,"lon":-87.5866204,"tags":{"bench":"yes","bin":"no","bus":"yes","highway":"bus_stop","name":"Stony Island & 62nd Street","network":"CTA","network:wikidata":"Q117309","network:wikipedia":"en:Chicago Transit Authority","operator":"Chicago Transit Authority","public_transport":"platform","ref":"1661","shelter":"yes"}},{"type":"node","id":4336581994,"lat":41.8024961,"lon":-87.6062818,"tags":{"bench":"yes","bin":"yes","bus":"yes","departures_board":"realtime","highway":"bus_stop","name":"Cottage Grove & 51st Street","network":"CTA","network:wikidata":"Q117309","network:wikipedia":"en:Chicago Transit Authority","operator":"Chicago Transit Authority","passenger_information_display":"realtime","public_transport":"platform","ref":"2507","shelter":"yes","tactile_paving":"no"}},{"type":"node","id":4336581995,"lat":41.8013434,"lon":-87.6065067,"tags":{"bench":"no","bus":"yes","highway":"bus_stop","name":"Cottage Grove & Payne","network":"CTA","network:wikidata":"Q117309","network:wikipedia":"en:Chicago Transit Authority","operator":"Chicago Transit Authority","public_transport":"platform","ref":"2554","shelter":"no"}},{"type":"node","id":4336581997,"lat":41.8012901,"lon":-87.6062411,"tags":{"bench":"no","bus":"yes","highway":"bus_stop","name":"Cottage Grove & Drexel Square Drive","network":"CTA","network:wikidata":"Q117309","network:wikipedia":"en:Chicago Transit Authority","operator":"Chicago Transit Authority","public_transport":"platform","ref":"2506","shelter":"no"}},{"type":"node","id":4336581998,"lat":41.8021699,"lon":-87.6066462,"tags":{"bench":"yes","bin":"no","bus":"yes","highway":"bus_stop","name":"51st Street & Cottage Grove","network":"CTA","network:wikidata":"Q117309","network:wikipedia":"en:Chicago Transit Authority","operator":"Chicago Transit Authority","public_transport":"platform","ref":"1636","shelter":"yes"}},{"type":"node","id":4336581999,"lat":41.8023211,"lon":-87.6068278,"tags":{"bench":"yes","bin":"no","bus":"yes","highway":"bus_stop","name":"51st Street & Cottage Grove","network":"CTA","network:wikidata":"Q117309","network:wikipedia":"en:Chicago Transit Authority","operator":"Chicago Transit Authority","public_transport":"platform","ref":"1535","shelter":"yes"}},{"type":"node","id":4336582000,"lat":41.783359,"lon":-87.5863561,"tags":{"bench":"yes","bus":"yes","highway":"bus_stop","name":"Stony Island & 62nd Street","network":"CTA","network:wikidata":"Q117309","network:wikipedia":"en:Chicago Transit Authority","operator":"Chicago Transit Authority","public_transport":"platform","ref":"1510","shelter":"no"}},{"type":"node","id":4336618576,"lat":41.780511,"lon":-87.5867791,"tags":{"bench":"yes","bus":"yes","highway":"bus_stop","name":"63rd Street & Stony Island","network":"CTA","network:wikidata":"Q117309","network:wikipedia":"en:Chicago Transit Authority","operator":"Chicago Transit Authority","public_transport":"platform","ref":"3453","shelter":"no"}},{"type":"node","id":4336618577,"lat":41.7809246,"lon":-87.5863299,"tags":{"bench":"yes","bus":"yes","highway":"bus_stop","name":"Stony Island & 63rd Street","network":"CTA","network:wikidata":"Q117309","network:wikipedia":"en:Chicago Transit Authority","operator":"Chicago Transit Authority","public_transport":"platform","ref":"1509","shelter":"yes"}},{"type":"node","id":4336618578,"lat":41.7803951,"lon":-87.5889169,"tags":{"bench":"no","bus":"yes","highway":"bus_stop","name":"Blackstone & 63rd Street","network":"CTA","network:wikidata":"Q117309","network:wikipedia":"en:Chicago Transit Authority","operator":"Chicago Transit Authority","public_transport":"platform","ref":"16111","shelter":"no"}},{"type":"node","id":4336618580,"lat":41.780499,"lon":-87.5892066,"tags":{"bench":"yes","bus":"yes","highway":"bus_stop","name":"63rd Street & Blackstone","network":"CTA","network:wikidata":"Q117309","network:wikipedia":"en:Chicago Transit Authority","operator":"Chicago Transit Authority","public_transport":"platform","ref":"3452","shelter":"no"}},{"type":"node","id":4336618583,"lat":41.7802246,"lon":-87.5865641,"tags":{"bench":"yes","bus":"yes","departures_board":"realtime","highway":"bus_stop","name":"Stony Island & 63rd Street","network":"CTA","network:wikidata":"Q117309","network:wikipedia":"en:Chicago Transit Authority","operator":"Chicago Transit Authority","passenger_information_display":"realtime","public_transport":"platform","ref":"5201","shelter":"yes"}},{"type":"node","id":4336652702,"lat":41.8019417,"lon":-87.6222966,"tags":{"bench":"no","bus":"yes","highway":"bus_stop","name":"51st Street & Michigan","network":"CTA","network:wikidata":"Q117309","network:wikipedia":"en:Chicago Transit Authority","operator":"Chicago Transit Authority","public_transport":"platform","ref":"1627","shelter":"no"}},{"type":"node","id":4336652703,"lat":41.802076,"lon":-87.6224449,"tags":{"bench":"no","bus":"yes","highway":"bus_stop","name":"51st Street & Michigan","network":"CTA","network:wikidata":"Q117309","network:wikipedia":"en:Chicago Transit Authority","operator":"Chicago Transit Authority","public_transport":"platform","ref":"9189","shelter":"no"}},{"type":"node","id":4336652704,"lat":41.8020947,"lon":-87.6124965,"tags":{"bench":"no","bus":"yes","highway":"bus_stop","name":"51st Street & Forrestville","network":"CTA","network:wikidata":"Q117309","network:wikipedia":"en:Chicago Transit Authority","operator":"Chicago Transit Authority","public_transport":"platform","ref":"1632","shelter":"no"}},{"type":"node","id":4336652705,"lat":41.8019597,"lon":-87.6212138,"tags":{"bench":"no","bus":"yes","highway":"bus_stop","name":"51st Street & Indiana","network":"CTA","network:wikidata":"Q117309","network:wikipedia":"en:Chicago Transit Authority","operator":"Chicago Transit Authority","public_transport":"platform","ref":"1628","shelter":"no"}},{"type":"node","id":4336652706,"lat":41.8020105,"lon":-87.6155637,"tags":{"bench":"yes","bus":"yes","highway":"bus_stop","name":"51st Street & King Drive","network":"CTA","network:wikidata":"Q117309","network:wikipedia":"en:Chicago Transit Authority","operator":"Chicago Transit Authority","public_transport":"platform","ref":"1631","shelter":"yes"}},{"type":"node","id":4336652707,"lat":41.8022634,"lon":-87.6099107,"tags":{"bench":"no","bin":"no","bus":"yes","highway":"bus_stop","name":"51st Street & Champlain","network":"CTA","network:wikidata":"Q117309","network:wikipedia":"en:Chicago Transit Authority","operator":"Chicago Transit Authority","public_transport":"platform","ref":"1537","shelter":"no"}},{"type":"node","id":4336652708,"lat":41.802246,"lon":-87.61109,"tags":{"bench":"no","bin":"no","bus":"yes","highway":"bus_stop","name":"51st Street & St. Lawrence","network":"CTA","network:wikidata":"Q117309","network:wikipedia":"en:Chicago Transit Authority","operator":"Chicago Transit Authority","public_transport":"platform","ref":"1538","shelter":"no"}},{"type":"node","id":4336652709,"lat":41.8021138,"lon":-87.6114863,"tags":{"bench":"no","bin":"no","bus":"yes","highway":"bus_stop","name":"51st Street & St. Lawrence","network":"CTA","network:wikidata":"Q117309","network:wikipedia":"en:Chicago Transit Authority","operator":"Chicago Transit Authority","public_transport":"platform","ref":"1633","shelter":"no"}},{"type":"node","id":4336652711,"lat":41.8020115,"lon":-87.6185551,"tags":{"bench":"no","bus":"yes","covered":"yes","departures_board":"realtime","highway":"bus_stop","name":"51st Street Green Line Station","network":"CTA","network:wikidata":"Q117309","network:wikipedia":"en:Chicago Transit Authority","operator":"Chicago Transit Authority","passenger_information_display":"realtime","public_transport":"platform","ref":"1629","shelter":"no"}},{"type":"node","id":4336652712,"lat":41.8021442,"lon":-87.618499,"tags":{"bench":"yes","bin":"yes","bus":"yes","covered":"yes","highway":"bus_stop","name":"51st Street Green Line Station","network":"CTA","network:wikidata":"Q117309","network:wikipedia":"en:Chicago Transit Authority","operator":"Chicago Transit Authority","public_transport":"platform","ref":"1542","shelter":"yes"}},{"type":"node","id":4336652713,"lat":41.8021096,"lon":-87.6207989,"tags":{"bench":"no","bus":"yes","highway":"bus_stop","name":"51st Street & Indiana","network":"CTA","network:wikidata":"Q117309","network:wikipedia":"en:Chicago Transit Authority","operator":"Chicago Transit Authority","public_transport":"platform","ref":"1543","shelter":"no"}},{"type":"node","id":4336652714,"lat":41.8023015,"lon":-87.6077876,"tags":{"bench":"no","bus":"yes","highway":"bus_stop","name":"51st Street & Evans","network":"CTA","network:wikidata":"Q117309","network:wikipedia":"en:Chicago Transit Authority","operator":"Chicago Transit Authority","public_transport":"platform","ref":"1536","shelter":"no"}},{"type":"node","id":4336652716,"lat":41.8021694,"lon":-87.6079179,"tags":{"bench":"no","bus":"yes","highway":"bus_stop","name":"51st Street & Evans","network":"CTA","network:wikidata":"Q117309","network:wikipedia":"en:Chicago Transit Authority","operator":"Chicago Transit Authority","public_transport":"platform","ref":"1635","shelter":"no"}},{"type":"node","id":4336652717,"lat":41.8021893,"lon":-87.6155969,"tags":{"bench":"no","bin":"no","bus":"yes","highway":"bus_stop","name":"51st Street & King Drive","network":"CTA","network:wikidata":"Q117309","network:wikipedia":"en:Chicago Transit Authority","operator":"Chicago Transit Authority","public_transport":"platform","ref":"1540","shelter":"no"}},{"type":"node","id":4336652718,"lat":41.8022191,"lon":-87.6129357,"tags":{"bench":"no","bin":"no","bus":"yes","highway":"bus_stop","name":"51st Street & Forrestville","network":"CTA","network:wikidata":"Q117309","network:wikipedia":"en:Chicago Transit Authority","operator":"Chicago Transit Authority","public_transport":"platform","ref":"1539","shelter":"no","tactile_paving":"no"}},{"type":"node","id":4336652720,"lat":41.8021368,"lon":-87.6099089,"tags":{"bench":"no","bus":"yes","highway":"bus_stop","name":"51st Street & Champlain","network":"CTA","network:wikidata":"Q117309","network:wikipedia":"en:Chicago Transit Authority","operator":"Chicago Transit Authority","public_transport":"platform","ref":"1634","shelter":"no"}},{"type":"node","id":4336652721,"lat":41.8021699,"lon":-87.6170391,"tags":{"bench":"yes","bin":"no","bus":"yes","highway":"bus_stop","name":"51st Street & King Drive","network":"CTA","network:wikidata":"Q117309","network:wikipedia":"en:Chicago Transit Authority","operator":"Chicago Transit Authority","public_transport":"platform","ref":"1541","shelter":"yes"}},{"type":"node","id":4336665823,"lat":41.8019874,"lon":-87.627878,"tags":{"bench":"no","bin":"no","bus":"yes","highway":"bus_stop","name":"51st Street & Federal","network":"CTA","network:wikidata":"Q117309","network:wikipedia":"en:Chicago Transit Authority","operator":"Chicago Transit Authority","public_transport":"platform","ref":"9192","shelter":"no"}},{"type":"node","id":4336665826,"lat":41.8019052,"lon":-87.6244678,"tags":{"bench":"no","bus":"yes","highway":"bus_stop","name":"51st Street & Wabash","network":"CTA","network:wikidata":"Q117309","network:wikipedia":"en:Chicago Transit Authority","operator":"Chicago Transit Authority","public_transport":"platform","ref":"9187","shelter":"no"}},{"type":"node","id":4336665830,"lat":41.8020458,"lon":-87.6256425,"tags":{"bench":"yes","bin":"no","bus":"yes","highway":"bus_stop","name":"51st Street & State","network":"CTA","network:wikidata":"Q117309","network:wikipedia":"en:Chicago Transit Authority","operator":"Chicago Transit Authority","public_transport":"platform","ref":"9191","shelter":"yes"}},{"type":"node","id":4336665832,"lat":41.801875,"lon":-87.626106,"tags":{"bench":"no","bus":"yes","highway":"bus_stop","name":"51st Street & State","network":"CTA","network:wikidata":"Q117309","network:wikipedia":"en:Chicago Transit Authority","operator":"Chicago Transit Authority","public_transport":"platform","ref":"9186","shelter":"no"}},{"type":"node","id":4336665835,"lat":41.8018539,"lon":-87.6275738,"tags":{"bench":"no","bus":"yes","highway":"bus_stop","name":"51st Street & Federal","network":"CTA","network:wikidata":"Q117309","network:wikipedia":"en:Chicago Transit Authority","operator":"Chicago Transit Authority","public_transport":"platform","ref":"9185","shelter":"no"}},{"type":"node","id":4336665836,"lat":41.802061,"lon":-87.6240425,"tags":{"bench":"no","bus":"yes","highway":"bus_stop","name":"51st Street & Wabash","network":"CTA","network:wikidata":"Q117309","network:wikipedia":"en:Chicago Transit Authority","operator":"Chicago Transit Authority","public_transport":"platform","ref":"9190","shelter":"no"}},{"type":"node","id":4390484333,"lat":41.838242,"lon":-87.6218136,"tags":{"bench":"no","bin":"yes","bus":"yes","highway":"bus_stop","name":"Indiana & 31st Street","network":"CTA","network:wikidata":"Q117309","network:wikipedia":"en:Chicago Transit Authority","operator":"Chicago Transit Authority","public_transport":"platform","ref":"1563","shelter":"no"}},{"type":"node","id":4390484335,"lat":41.8380809,"lon":-87.6235575,"tags":{"bench":"no","bin":"yes","bus":"yes","highway":"bus_stop","name":"Michigan & 31st Street","network":"CTA","network:wikidata":"Q117309","network:wikipedia":"en:Chicago Transit Authority","operator":"Chicago Transit Authority","public_transport":"platform","ref":"1607","shelter":"no","tactile_paving":"no"}},{"type":"node","id":4390484338,"lat":41.8382862,"lon":-87.6230553,"tags":{"bench":"no","bus":"yes","highway":"bus_stop","name":"31st Street & Michigan","network":"CTA","network:wikidata":"Q117309","network:wikipedia":"en:Chicago Transit Authority","operator":"Chicago Transit Authority","public_transport":"platform","ref":"18243","shelter":"no"}},{"type":"node","id":4390484339,"lat":41.8365087,"lon":-87.6267824,"tags":{"bench":"yes","bus":"yes","highway":"bus_stop","name":"State & 32nd Street","network":"CTA","network:wikidata":"Q117309","network:wikipedia":"en:Chicago Transit Authority","operator":"Chicago Transit Authority","public_transport":"platform","ref":"2396","shelter":"no"}},{"type":"node","id":4390484341,"lat":41.8312257,"lon":-87.6297452,"tags":{"bench":"no","bus":"yes","highway":"bus_stop","local_ref":"C","name":"LaSalle & 35th Street","network":"CTA","network:wikidata":"Q117309","network:wikipedia":"en:Chicago Transit Authority","operator":"Chicago Transit Authority","public_transport":"platform","ref":"6480","shelter":"no"}},{"type":"node","id":4390484343,"lat":41.8384641,"lon":-87.6194901,"tags":{"bench":"yes","bus":"yes","highway":"bus_stop","name":"31st Street & Giles","network":"CTA","network:wikidata":"Q117309","network:wikipedia":"en:Chicago Transit Authority","operator":"Chicago Transit Authority","public_transport":"platform","ref":"7504","shelter":"no"}},{"type":"node","id":4390484345,"lat":41.8311593,"lon":-87.6266975,"tags":{"bench":"no","bin":"no","bus":"yes","highway":"bus_stop","local_ref":"H","name":"State & 35th Street","network":"CTA","network:wikidata":"Q117309","network:wikipedia":"en:Chicago Transit Authority","operator":"Chicago Transit Authority","public_transport":"platform","ref":"2399","shelter":"no"}},{"type":"node","id":4390484346,"lat":41.8385798,"lon":-87.6175911,"tags":{"bench":"yes","bin":"yes","bus":"yes","highway":"bus_stop","name":"King Drive & 31st Street","network":"CTA","network:wikidata":"Q117309","network:wikipedia":"en:Chicago Transit Authority","operator":"Chicago Transit Authority","public_transport":"platform","ref":"2198","shelter":"no"}},{"type":"node","id":4390484348,"lat":41.838493,"lon":-87.6178057,"tags":{"bench":"no","bus":"yes","highway":"bus_stop","name":"31st Street & King Drive","network":"CTA","network:wikidata":"Q117309","network:wikipedia":"en:Chicago Transit Authority","operator":"Chicago Transit Authority","public_transport":"platform","ref":"7504","shelter":"no"}},{"type":"node","id":4390484351,"lat":41.8379247,"lon":-87.6268079,"tags":{"bench":"no","bus":"yes","highway":"bus_stop","name":"State & 31st Street","network":"CTA","network:wikidata":"Q117309","network:wikipedia":"en:Chicago Transit Authority","operator":"Chicago Transit Authority","public_transport":"platform","ref":"18239","shelter":"no"}},{"type":"node","id":4390484352,"lat":41.8327999,"lon":-87.6267086,"tags":{"bench":"yes","bus":"yes","highway":"bus_stop","name":"3400 S State","network":"CTA","network:wikidata":"Q117309","network:wikipedia":"en:Chicago Transit Authority","operator":"Chicago Transit Authority","public_transport":"platform","ref":"2398","shelter":"no"}},{"type":"node","id":4390484353,"lat":41.8383185,"lon":-87.6196436,"tags":{"bench":"no","bus":"yes","highway":"bus_stop","name":"31st Street & Giles","network":"CTA","network:wikidata":"Q117309","network:wikipedia":"en:Chicago Transit Authority","operator":"Chicago Transit Authority","public_transport":"platform","ref":"7489","shelter":"no"}},{"type":"node","id":4390484355,"lat":41.838139,"lon":-87.6265324,"tags":{"bench":"yes","bus":"yes","highway":"bus_stop","name":"State & 31st Street","network":"CTA","network:wikidata":"Q117309","network:wikipedia":"en:Chicago Transit Authority","operator":"Chicago Transit Authority","public_transport":"platform","ref":"2334","shelter":"yes"}},{"type":"node","id":4390484356,"lat":41.838427,"lon":-87.6237913,"tags":{"bench":"no","bin":"no","bus":"yes","highway":"bus_stop","lit":"yes","name":"31st Street & Michigan","network":"CTA","network:wikidata":"Q117309","network:wikipedia":"en:Chicago Transit Authority","operator":"Chicago Transit Authority","public_transport":"platform","ref":"18244","shelter":"no","tactile_paving":"no"}},{"type":"node","id":4390484357,"lat":41.8310472,"lon":-87.6288444,"tags":{"bench":"no","bus":"yes","highway":"bus_stop","name":"35th Street & Federal","network":"CTA","network:wikidata":"Q117309","network:wikipedia":"en:Chicago Transit Authority","operator":"Chicago Transit Authority","public_transport":"platform","ref":"6482","shelter":"no"}},{"type":"node","id":4390484358,"lat":41.8309089,"lon":-87.6290675,"tags":{"bench":"no","bus":"yes","highway":"bus_stop","name":"35th Street & Federal","network":"CTA","network:wikidata":"Q117309","network:wikipedia":"en:Chicago Transit Authority","operator":"Chicago Transit Authority","public_transport":"platform","ref":"7681","shelter":"no"}},{"type":"node","id":4390484359,"lat":41.8329872,"lon":-87.6264044,"tags":{"bench":"yes","bus":"yes","highway":"bus_stop","name":"State & 34th Street","network":"CTA","network:wikidata":"Q117309","network:wikipedia":"en:Chicago Transit Authority","operator":"Chicago Transit Authority","public_transport":"platform","ref":"2331","shelter":"no"}},{"type":"node","id":4390484363,"lat":41.8345377,"lon":-87.6264074,"tags":{"bench":"yes","bin":"no","bus":"yes","highway":"bus_stop","name":"State & 33rd Street","network":"CTA","network:wikidata":"Q117309","network:wikipedia":"en:Chicago Transit Authority","operator":"Chicago Transit Authority","public_transport":"platform","ref":"2332","shelter":"no"}},{"type":"node","id":4390484364,"lat":41.8337171,"lon":-87.6147319,"tags":{"bench":"yes","bus":"yes","highway":"bus_stop","name":"33rd Place & Rhodes","network":"CTA","network:wikidata":"Q117309","network:wikipedia":"en:Chicago Transit Authority","operator":"Chicago Transit Authority","public_transport":"platform","ref":"18237","shelter":"no"}},{"type":"node","id":4390484373,"lat":41.8309367,"lon":-87.6259458,"tags":{"bench":"yes","bus":"yes","departures_board":"realtime","highway":"bus_stop","local_ref":"K","name":"35th Street & State (Green Line)","network":"CTA","network:wikidata":"Q117309","network:wikipedia":"en:Chicago Transit Authority","operator":"Chicago Transit Authority","public_transport":"platform","ref":"14953","shelter":"yes"}},{"type":"node","id":4390484375,"lat":41.8315504,"lon":-87.6264131,"tags":{"bench":"no","bus":"yes","highway":"bus_stop","local_ref":"G","name":"State & 35th Street","network":"CTA","network:wikidata":"Q117309","network:wikipedia":"en:Chicago Transit Authority","operator":"Chicago Transit Authority","public_transport":"platform","ref":"18238","shelter":"no"}},{"type":"node","id":4390484379,"lat":41.8385573,"lon":-87.6299732,"tags":{"bench":"no","bus":"yes","highway":"bus_stop","name":"LaSalle & 31st Street","network":"CTA","network:wikidata":"Q117309","network:wikipedia":"en:Chicago Transit Authority","operator":"Chicago Transit Authority","public_transport":"platform","ref":"6482","shelter":"no"}},{"type":"node","id":4390484384,"lat":41.8363621,"lon":-87.6264718,"tags":{"bench":"yes","bus":"yes","highway":"bus_stop","name":"State & 32nd Street","network":"CTA","network:wikidata":"Q117309","network:wikipedia":"en:Chicago Transit Authority","operator":"Chicago Transit Authority","public_transport":"platform","ref":"2333","shelter":"no"}},{"type":"node","id":4390484385,"lat":41.838398,"lon":-87.6136495,"tags":{"bench":"no","bus":"yes","highway":"bus_stop","name":"31st Street & Rhodes","network":"CTA","network:wikidata":"Q117309","network:wikipedia":"en:Chicago Transit Authority","operator":"Chicago Transit Authority","public_transport":"platform","ref":"18242","shelter":"no"}},{"type":"node","id":4390484390,"lat":41.8348231,"lon":-87.6267462,"tags":{"bench":"yes","bin":"no","bus":"yes","highway":"bus_stop","name":"State & 33rd Street","network":"CTA","network:wikidata":"Q117309","network:wikipedia":"en:Chicago Transit Authority","operator":"Chicago Transit Authority","public_transport":"platform","ref":"2397","shelter":"no"}},{"type":"node","id":4390484392,"lat":41.8311066,"lon":-87.6262805,"tags":{"bench":"yes","bus":"yes","departures_board":"realtime","highway":"bus_stop","local_ref":"J","name":"35th Street & State (Green Line)","network":"CTA","network:wikidata":"Q117309","network:wikipedia":"en:Chicago Transit Authority","operator":"Chicago Transit Authority","passenger_information_display":"realtime","public_transport":"platform","ref":"7635","shelter":"yes"}},{"type":"node","id":4390484393,"lat":41.8383048,"lon":-87.6170257,"tags":{"bench":"no","bin":"yes","bus":"yes","highway":"bus_stop","lit":"yes","name":"King Drive & 31st Street","network":"CTA","network:wikidata":"Q117309","network:wikipedia":"en:Chicago Transit Authority","operator":"Chicago Transit Authority","public_transport":"platform","ref":"2171","shelter":"no","tactile_paving":"no"}},{"type":"node","id":4390484396,"lat":41.8383554,"lon":-87.6166386,"tags":{"bench":"yes","bus":"yes","highway":"bus_stop","name":"31st Street & King Drive","network":"CTA","network:wikidata":"Q117309","network:wikipedia":"en:Chicago Transit Authority","operator":"Chicago Transit Authority","public_transport":"platform","ref":"2172","shelter":"no"}},{"type":"node","id":4578416097,"lat":41.7808064,"lon":-87.6060578,"tags":{"bench":"yes","bin":"no","bus":"yes","departures_board":"realtime","highway":"bus_stop","name":"Cottage Grove & 63rd Street (Green Line)","network":"CTA","network:wikidata":"Q117309","network:wikipedia":"en:Chicago Transit Authority","operator":"Chicago Transit Authority","passenger_information_display":"realtime","public_transport":"platform","ref":"2566","shelter":"yes","tactile_paving":"no"}},{"type":"node","id":4578416119,"lat":41.7808123,"lon":-87.6058034,"tags":{"bench":"yes","bus":"yes","departures_board":"realtime","highway":"bus_stop","name":"Cottage Grove & 63rd Street (Green Line)","network":"CTA","network:wikidata":"Q117309","network:wikipedia":"en:Chicago Transit Authority","operator":"Chicago Transit Authority","passenger_information_display":"realtime","public_transport":"platform","ref":"17572","shelter":"yes"}},{"type":"node","id":4584321381,"lat":41.7842208,"lon":-87.6061316,"tags":{"bench":"yes","bin":"no","bus":"yes","highway":"bus_stop","lit":"yes","name":"Cottage Grove & 61st Street","network":"CTA","network:wikidata":"Q117309","network:wikipedia":"en:Chicago Transit Authority","operator":"Chicago Transit Authority","public_transport":"platform","ref":"2564","shelter":"yes","tactile_paving":"no"}},{"type":"node","id":4584321382,"lat":41.8096884,"lon":-87.6067085,"tags":{"bench":"yes","bin":"yes","bus":"yes","departures_board":"realtime","highway":"bus_stop","lit":"yes","name":"Cottage Grove & 47th Street","network":"CTA","network:wikidata":"Q117309","network:wikipedia":"en:Chicago Transit Authority","operator":"Chicago Transit Authority","passenger_information_display":"realtime","public_transport":"platform","ref":"2549","shelter":"yes","tactile_paving":"no"}},{"type":"node","id":4584321383,"lat":41.7839146,"lon":-87.6058966,"tags":{"bench":"yes","bin":"yes","bus":"yes","highway":"bus_stop","lit":"yes","name":"Cottage Grove & 61st Street","network":"CTA","network:wikidata":"Q117309","network:wikipedia":"en:Chicago Transit Authority","operator":"Chicago Transit Authority","public_transport":"platform","ref":"2496","shelter":"yes","tactile_paving":"no"}},{"type":"node","id":4584321384,"lat":41.8097775,"lon":-87.6064444,"tags":{"bench":"yes","bus":"yes","departures_board":"realtime","highway":"bus_stop","name":"Cottage Grove & 47th Street","network":"CTA","network:wikidata":"Q117309","network:wikipedia":"en:Chicago Transit Authority","operator":"Chicago Transit Authority","passenger_information_display":"realtime","public_transport":"platform","ref":"14574","shelter":"yes"}},{"type":"node","id":4584321385,"lat":41.8057636,"lon":-87.6063539,"tags":{"bench":"yes","bus":"yes","highway":"bus_stop","name":"Cottage Grove & 49th Street","network":"CTA","network:wikidata":"Q117309","network:wikipedia":"en:Chicago Transit Authority","operator":"Chicago Transit Authority","public_transport":"platform","ref":"2509","shelter":"yes"}},{"type":"node","id":4584321386,"lat":41.7821525,"lon":-87.6058533,"tags":{"bench":"no","bus":"yes","highway":"bus_stop","name":"Cottage Grove & 62nd Street","network":"CTA","network:wikidata":"Q117309","network:wikipedia":"en:Chicago Transit Authority","operator":"Chicago Transit Authority","public_transport":"platform","ref":"2495","shelter":"no"}},{"type":"node","id":4584321387,"lat":41.7840419,"lon":-87.610701,"tags":{"bench":"no","bin":"no","bus":"yes","highway":"bus_stop","lit":"yes","name":"61st Street & St. Lawrence","network":"CTA","network:wikidata":"Q117309","network:wikipedia":"en:Chicago Transit Authority","operator":"Chicago Transit Authority","public_transport":"platform","ref":"13036","shelter":"no","tactile_paving":"no"}},{"type":"node","id":4584321388,"lat":41.7839978,"lon":-87.605558,"tags":{"bench":"no","bin":"no","bus":"yes","highway":"bus_stop","lit":"yes","name":"61st Street & Cottage Grove","network":"CTA","network:wikidata":"Q117309","network:wikipedia":"en:Chicago Transit Authority","operator":"Chicago Transit Authority","public_transport":"platform","ref":"15697","shelter":"no","tactile_paving":"no"}},{"type":"node","id":4584322189,"lat":41.7823246,"lon":-87.6060941,"tags":{"bench":"no","bin":"no","bus":"yes","highway":"bus_stop","name":"Cottage Grove & 62nd Street","network":"CTA","network:wikidata":"Q117309","network:wikipedia":"en:Chicago Transit Authority","operator":"Chicago Transit Authority","public_transport":"platform","ref":"2565","shelter":"no"}},{"type":"node","id":4584322190,"lat":41.7802606,"lon":-87.610954,"tags":{"bench":"no","bus":"yes","highway":"bus_stop","name":"63rd Street & St. Lawrence","network":"CTA","network:wikidata":"Q117309","network:wikipedia":"en:Chicago Transit Authority","operator":"Chicago Transit Authority","public_transport":"platform","ref":"3440","shelter":"no"}},{"type":"node","id":4584322191,"lat":41.8078252,"lon":-87.606665,"tags":{"bench":"no","bus":"yes","highway":"bus_stop","name":"Cottage Grove & 48th Street","network":"CTA","network:wikidata":"Q117309","network:wikipedia":"en:Chicago Transit Authority","operator":"Chicago Transit Authority","public_transport":"platform","ref":"2550","shelter":"no"}},{"type":"node","id":4584322192,"lat":41.7804565,"lon":-87.6082375,"tags":{"bench":"yes","bus":"yes","highway":"bus_stop","name":"63rd Street & Langley","network":"CTA","network:wikidata":"Q117309","network:wikipedia":"en:Chicago Transit Authority","operator":"Chicago Transit Authority","public_transport":"platform","ref":"3218","shelter":"no"}},{"type":"node","id":4584322193,"lat":41.7839465,"lon":-87.6160585,"tags":{"bench":"no","bin":"no","bus":"yes","highway":"bus_stop","name":"61st Street & King Drive","network":"CTA","network:wikidata":"Q117309","network:wikipedia":"en:Chicago Transit Authority","operator":"Chicago Transit Authority","public_transport":"platform","ref":"15511","shelter":"no"}},{"type":"node","id":4584322195,"lat":41.7840837,"lon":-87.6082847,"tags":{"bench":"no","bin":"yes","bus":"yes","highway":"bus_stop","lit":"yes","name":"61st Street & Langley","network":"CTA","network:wikidata":"Q117309","network:wikipedia":"en:Chicago Transit Authority","operator":"Chicago Transit Authority","public_transport":"platform","ref":"13034","shelter":"no","tactile_paving":"no"}},{"type":"node","id":4584322196,"lat":41.7818827,"lon":-87.6157581,"tags":{"bench":"no","bus":"yes","highway":"bus_stop","name":"King Drive & 62nd Street","network":"CTA","network:wikidata":"Q117309","network:wikipedia":"en:Chicago Transit Authority","operator":"Chicago Transit Authority","public_transport":"platform","ref":"2230","shelter":"no"}},{"type":"node","id":4584322197,"lat":41.7841839,"lon":-87.6156282,"tags":{"bench":"yes","bus":"yes","highway":"bus_stop","name":"King Drive & 61st Street","network":"CTA","network:wikidata":"Q117309","network:wikipedia":"en:Chicago Transit Authority","operator":"Chicago Transit Authority","public_transport":"platform","ref":"2140","shelter":"yes"}},{"type":"node","id":4584322198,"lat":41.7838589,"lon":-87.6134176,"tags":{"bench":"no","bus":"yes","highway":"bus_stop","name":"61st Street & Eberhart","network":"CTA","network:wikidata":"Q117309","network:wikipedia":"en:Chicago Transit Authority","operator":"Chicago Transit Authority","public_transport":"platform","ref":"13007","shelter":"no"}},{"type":"node","id":4584322199,"lat":41.7823375,"lon":-87.6155931,"tags":{"bench":"no","bus":"yes","highway":"bus_stop","name":"King Drive & 62nd Street","network":"CTA","network:wikidata":"Q117309","network:wikipedia":"en:Chicago Transit Authority","operator":"Chicago Transit Authority","public_transport":"platform","ref":"2139","shelter":"no"}},{"type":"node","id":4584322200,"lat":41.8075965,"lon":-87.606387,"tags":{"bench":"no","bus":"yes","highway":"bus_stop","name":"Cottage Grove & 48th Street","network":"CTA","network:wikidata":"Q117309","network:wikipedia":"en:Chicago Transit Authority","operator":"Chicago Transit Authority","public_transport":"platform","ref":"2510","shelter":"no"}},{"type":"node","id":4584322201,"lat":41.783825,"lon":-87.6153527,"tags":{"bench":"no","bus":"yes","covered":"no","highway":"bus_stop","name":"61st Street & King Drive","network":"CTA","network:wikidata":"Q117309","network:wikipedia":"en:Chicago Transit Authority","operator":"Chicago Transit Authority","public_transport":"platform","ref":"15487","shelter":"no"}},{"type":"node","id":4584322202,"lat":41.7804133,"lon":-87.6106039,"tags":{"bench":"yes","bus":"yes","highway":"bus_stop","name":"63rd Street & St. Lawrence","network":"CTA","network:wikidata":"Q117309","network:wikipedia":"en:Chicago Transit Authority","operator":"Chicago Transit Authority","public_transport":"platform","ref":"3219","shelter":"yes"}},{"type":"node","id":4584322203,"lat":41.8039947,"lon":-87.6063294,"tags":{"bench":"no","bus":"yes","highway":"bus_stop","name":"Cottage Grove & 50th Street","network":"CTA","network:wikidata":"Q117309","network:wikipedia":"en:Chicago Transit Authority","operator":"Chicago Transit Authority","public_transport":"platform","ref":"2508","shelter":"no"}},{"type":"node","id":4584322204,"lat":41.7835931,"lon":-87.6158024,"tags":{"bench":"yes","bus":"yes","highway":"bus_stop","name":"King Drive & 61st Street","network":"CTA","network:wikidata":"Q117309","network:wikipedia":"en:Chicago Transit Authority","operator":"Chicago Transit Authority","public_transport":"platform","ref":"2229","shelter":"yes"}},{"type":"node","id":4584322205,"lat":41.804192,"lon":-87.6065748,"tags":{"bench":"no","bus":"yes","highway":"bus_stop","name":"Cottage Grove & 50th Street","network":"CTA","network:wikidata":"Q117309","network:wikipedia":"en:Chicago Transit Authority","operator":"Chicago Transit Authority","public_transport":"platform","ref":"2552","shelter":"no"}},{"type":"node","id":4584322206,"lat":41.7805022,"lon":-87.6155272,"tags":{"bench":"yes","bus":"yes","departures_board":"realtime","highway":"bus_stop","name":"King Drive & 63rd Street (Green Line)","network":"CTA","network:wikidata":"Q117309","network:wikipedia":"en:Chicago Transit Authority","operator":"Chicago Transit Authority","passenger_information_display":"realtime","public_transport":"platform","ref":"2138","shelter":"yes"}},{"type":"node","id":4584322207,"lat":41.7838939,"lon":-87.6110565,"tags":{"bench":"no","bin":"no","bus":"yes","highway":"bus_stop","lit":"yes","name":"61st Street & St. Lawrence","network":"CTA","network:wikidata":"Q117309","network:wikipedia":"en:Chicago Transit Authority","operator":"Chicago Transit Authority","public_transport":"platform","ref":"13008","shelter":"no","tactile_paving":"no"}},{"type":"node","id":4584322210,"lat":41.7803163,"lon":-87.6154323,"tags":{"bench":"yes","bus":"yes","departures_board":"realtime","highway":"bus_stop","name":"63rd Street & King Drive (Green Line)","network":"CTA","network:wikidata":"Q117309","network:wikipedia":"en:Chicago Transit Authority","operator":"Chicago Transit Authority","passenger_information_display":"realtime","public_transport":"platform","ref":"3222","shelter":"yes"}},{"type":"node","id":4584322211,"lat":41.7801593,"lon":-87.6159321,"tags":{"bench":"yes","bus":"yes","departures_board":"realtime","highway":"bus_stop","name":"63rd Street & King Drive (Green Line)","network":"CTA","network:wikidata":"Q117309","network:wikipedia":"en:Chicago Transit Authority","operator":"Chicago Transit Authority","passenger_information_display":"realtime","public_transport":"platform","ref":"3437","shelter":"yes"}},{"type":"node","id":4584322214,"lat":41.7839461,"lon":-87.6086059,"tags":{"bench":"no","bus":"yes","highway":"bus_stop","name":"61st Street & Langley","network":"CTA","network:wikidata":"Q117309","network:wikipedia":"en:Chicago Transit Authority","operator":"Chicago Transit Authority","public_transport":"platform","ref":"13010","shelter":"no"}},{"type":"node","id":4584322215,"lat":41.780509,"lon":-87.6156997,"tags":{"bench":"yes","bus":"yes","departures_board":"realtime","highway":"bus_stop","name":"King Drive & 63rd Street (Green Line)","network":"CTA","network:wikidata":"Q117309","network:wikipedia":"en:Chicago Transit Authority","operator":"Chicago Transit Authority","passenger_information_display":"realtime","public_transport":"platform","ref":"15537","shelter":"yes"}},{"type":"node","id":4584322217,"lat":41.7803026,"lon":-87.6085135,"tags":{"bench":"no","bus":"yes","highway":"bus_stop","name":"63rd Street & Langley","network":"CTA","network:wikidata":"Q117309","network:wikipedia":"en:Chicago Transit Authority","operator":"Chicago Transit Authority","public_transport":"platform","ref":"3441","shelter":"no"}},{"type":"node","id":4584322218,"lat":41.7804666,"lon":-87.606222,"tags":{"bench":"yes","bin":"no","bus":"yes","highway":"bus_stop","name":"63rd Street & Cottage Grove (Green Line)","network":"CTA","network:wikidata":"Q117309","network:wikipedia":"en:Chicago Transit Authority","operator":"Chicago Transit Authority","public_transport":"platform","ref":"16077","shelter":"yes"}},{"type":"node","id":4584322219,"lat":41.7841233,"lon":-87.6057981,"tags":{"bench":"no","bin":"yes","bus":"yes","highway":"bus_stop","lit":"yes","name":"61st Street & Cottage Grove","network":"CTA","network:wikidata":"Q117309","network:wikipedia":"en:Chicago Transit Authority","operator":"Chicago Transit Authority","public_transport":"platform","ref":"13033","shelter":"yes","tactile_paving":"no"}},{"type":"node","id":4584322220,"lat":41.7803529,"lon":-87.606132,"tags":{"bench":"no","bus":"yes","highway":"bus_stop","name":"63rd Street & Cottage Grove (Green Line)","network":"CTA","network:wikidata":"Q117309","network:wikipedia":"en:Chicago Transit Authority","operator":"Chicago Transit Authority","public_transport":"platform","ref":"3442","shelter":"no"}},{"type":"node","id":4584322221,"lat":41.7802171,"lon":-87.6133462,"tags":{"bench":"no","bus":"yes","highway":"bus_stop","name":"63rd Street & Eberhart","network":"CTA","network:wikidata":"Q117309","network:wikipedia":"en:Chicago Transit Authority","operator":"Chicago Transit Authority","public_transport":"platform","ref":"3438","shelter":"no"}},{"type":"node","id":4584322222,"lat":41.7803591,"lon":-87.613048,"tags":{"bench":"no","bus":"yes","highway":"bus_stop","name":"63rd Street & Eberhart","network":"CTA","network:wikidata":"Q117309","network:wikipedia":"en:Chicago Transit Authority","operator":"Chicago Transit Authority","public_transport":"platform","ref":"3221","shelter":"no"}},{"type":"node","id":4584322223,"lat":41.8055796,"lon":-87.6066183,"tags":{"bench":"yes","bin":"no","bus":"yes","highway":"bus_stop","name":"Cottage Grove & 49th Street","network":"CTA","network:wikidata":"Q117309","network:wikipedia":"en:Chicago Transit Authority","operator":"Chicago Transit Authority","public_transport":"platform","ref":"2551","shelter":"yes"}},{"type":"node","id":4584322224,"lat":41.7839975,"lon":-87.6130801,"tags":{"bench":"no","bin":"no","bus":"yes","highway":"bus_stop","lit":"yes","name":"61st Street & Eberhart","network":"CTA","network:wikidata":"Q117309","network:wikipedia":"en:Chicago Transit Authority","operator":"Chicago Transit Authority","public_transport":"platform","ref":"13037","shelter":"no","tactile_paving":"no"}},{"type":"node","id":4590155922,"lat":41.8226085,"lon":-87.606741,"tags":{"bench":"no","bin":"no","bus":"yes","highway":"bus_stop","name":"Cottage Grove & Oakwood","network":"CTA","network:wikidata":"Q117309","network:wikipedia":"en:Chicago Transit Authority","operator":"Chicago Transit Authority","public_transport":"platform","ref":"2519","shelter":"no"}},