[{"type":"node","id":357046400,"lat":41.8686597,"lon":-87.6260919,"tags":{"addr:city":"Chicago","addr:housenumber":"1112","addr:postcode":"60605","addr:state":"IL","addr:street":"South Wabash Avenue","amenity":"restaurant","check_date":"2025-06-29","name":"Eleven City Diner","url":"http://www.elevencitydiner.com/"}},{"type":"node","id":2356511949,"lat":41.8688255,"lon":-87.6245382,"tags":{"addr:city":"Chicago","addr:housenumber":"1120","addr:postcode":"60605","addr:state":"IL","addr:street":"South Michigan Avenue","amenity":"restaurant","cuisine":"breakfast","diet:vegetarian":"yes","name":"Yolk - South Loop","phone":"+1-312-789-9655","website":"https://eatyolk.com/"}},{"type":"node","id":2361072387,"lat":41.8091967,"lon":-87.6200842,"tags":{"addr:city":"Chicago","addr:housenumber":"225","addr:postcode":"60653","addr:state":"IL","addr:street":"East 47th Street","amenity":"restaurant","name":"Dirty Tiff's Cafe","phone":"+17739663451","website":"http://www.dirtytiffscafe.com/"}},{"type":"node","id":2633069904,"lat":41.8670718,"lon":-87.6243199,"tags":{"addr:city":"Chicago","addr:housenumber":"1250","addr:postcode":"60605","addr:state":"IL","addr:street":"South Michigan Avenue","amenity":"restaurant","cuisine":"comfort_food","name":"Crave Cafe and Lounge"}},{"type":"node","id":3407977972,"lat":41.8535449,"lon":-87.6329633,"tags":{"addr:city":"Chicago","addr:housenumber":"2131","addr:postcode":"60616","addr:state":"IL","addr:street":"South Archer Avenue","amenity":"restaurant","cuisine":"chinese","name":"Phoenix"}},{"type":"node","id":3919160343,"lat":41.867869,"lon":-87.624376,"tags":{"addr:city":"Chicago","addr:country":"US","addr:housenumber":"1150","addr:postcode":"60605","addr:state":"IL","addr:street":"South Michigan Avenue","amenity":"restaurant","cuisine":"burger","name":"Burger Bar Chicago - South Loop","phone":"+1-312-988-0162","website":"https://burgerbarchicago.com/"}},{"type":"node","id":4831308139,"lat":41.8526469,"lon":-87.6330884,"tags":{"addr:city":"Chicago","addr:housenumber":"225","addr:postcode":"60616","addr:state":"IL","addr:street":"West Cermak Road","amenity":"restaurant","check_date":"2025-08-30","cuisine":"chinese","name":"Xi'an Cuisine","phone":"+1-312-326 3171","website":"https://www.xiancuisinechicago.com/"}},{"type":"node","id":5376364522,"lat":41.864555,"lon":-87.623821,"tags":{"addr:city":"Chicago","addr:housenumber":"1355","addr:postcode":"60605","addr:state":"IL","addr:street":"South Michigan Avenue","amenity":"restaurant","cuisine":"mediterranean","diet:halal":"yes","name":"Kurah Mediterranean"}},{"type":"node","id":5419560721,"lat":41.8524362,"lon":-87.6318723,"tags":{"addr:city":"Chicago","addr:housenumber":"2217","addr:postcode":"60616","addr:state":"IL","addr:street":"South Wentworth Avenue","amenity":"restaurant","cuisine":"chinese","name":"Triple Crown Restaurant","opening_hours":"Mo-Su 09:00-02:00","phone":"+1-312-842-0088","website":"http://m.triplecrownchicago.com/"}},{"type":"node","id":5571138424,"lat":41.853545,"lon":-87.6345564,"tags":{"addr:city":"Chicago","addr:housenumber":"2160","addr:postcode":"60616","addr:state":"IL","addr:street":"South Archer Avenue","amenity":"restaurant","cuisine":"chinese","name":"Chi Cafe","opening_hours":"16:00-02:00","phone":"+1-312-842-9993","website":"https://www.chicafeonline.com/"}},{"type":"node","id":5919468187,"lat":41.8523343,"lon":-87.6333754,"tags":{"addr:city":"Chicago","addr:housenumber":"232","addr:postcode":"60616","addr:state":"IL","addr:street":"West 22nd Place","amenity":"restaurant","cuisine":"chinese","internet_access":"wlan","name":"Gao\u2019s Kabob","opening_hours":"Mo-Su 17:00-02:00","phone":"+1 312 526 3836"}},{"type":"node","id":5999507785,"lat":41.8415825,"lon":-87.6321476,"tags":{"addr:city":"Chicago","addr:housenumber":"2828","addr:postcode":"60616","addr:state":"IL","addr:street":"South Wentworth Avenue","amenity":"restaurant","cuisine":"asian","email":"edlau6888@yahoo.com","name":"Furama Restaurant","operator":"Eddie Lau & Nancy Lau","phone":"+1 312 225 6888"}},{"type":"node","id":6105248085,"lat":41.8526635,"lon":-87.6226785,"tags":{"addr:city":"Chicago","addr:housenumber":"2206","addr:postcode":"60616","addr:state":"IL","addr:street":"South Indiana Avenue","amenity":"restaurant","name":"Fatpour Tap Works","name:en":"Fatpour (McCormick)","opening_hours":"Sa,Su 10:00-02:00, Mo-Fr 11:00-02:00","phone":"+1-312-878-9292","website":"https://www.fatpourmccormick.com/"}},{"type":"node","id":6164622585,"lat":41.8533599,"lon":-87.6348285,"tags":{"addr:city":"Chicago","addr:housenumber":"2168","addr:postcode":"60616","addr:state":"IL","addr:street":"South Archer Avenue","amenity":"restaurant","branch":"Chinatown","cuisine":"chinese","name":"MingHin Cuisine","phone":"+1-312-808-1999","website":"https://www.minghincuisine.com/"}},{"type":"node","id":6256604400,"lat":41.859079,"lon":-87.6252706,"tags":{"addr:city":"Chicago","addr:housenumber":"1639","addr:postcode":"60616","addr:state":"IL","addr:street":"South Wabash Avenue","amenity":"restaurant","check_date":"2025-11-08","cuisine":"american","name":"Oliver's","phone":"+1-213-320-3100","website":"https://www.eatatolivers.com/"}},{"type":"node","id":6268992795,"lat":41.8536025,"lon":-87.6349408,"tags":{"addr:city":"Chicago","addr:housenumber":"2163","addr:postcode":"60616","addr:state":"IL","addr:street":"South China Place","amenity":"restaurant","branch":"Chicago Chinatown","brand":"Bonchon Chicken","brand:wikidata":"Q4941248","cuisine":"chicken;korean;sushi","name":"Bonchon Chicken","phone":"+1-312-877-5832","website":"https://locations.bonchon.com/ll/US/IL/Chicago/2163-S-China-Pl"}},{"type":"node","id":6284701969,"lat":41.8525597,"lon":-87.6360949,"tags":{"addr:city":"Chicago","addr:floor":"1","addr:housenumber":"2222","addr:postcode":"60616","addr:state":"IL","addr:street":"South Archer Avenue","amenity":"restaurant","bar":"yes","check_date":"2025-04-21","cuisine":"chinese","internet_access":"no","level":"0","name":"Dolo Restaurant and Bar","opening_hours":"10:00-21:00","outdoor_seating":"no","payment:cash":"yes","payment:credit_cards":"yes","payment:debit_cards":"yes","phone":"+1-312-877-5117","toilets":"yes","website":"https://www.dolorestaurant.com/","wheelchair":"yes"}},{"type":"node","id":6289514671,"lat":41.8383347,"lon":-87.6330764,"tags":{"addr:city":"Chicago","addr:housenumber":"234","addr:postcode":"60616","addr:state":"IL","addr:street":"West 31st Street","amenity":"restaurant","cuisine":"japanese;sushi","name":"Lawrence Fish Market Chinatown","website":"https://ct.lawrencefish.com/"}},{"type":"node","id":6290963934,"lat":41.865387,"lon":-87.6263756,"tags":{"addr:city":"Chicago","addr:housenumber":"1310","addr:postcode":"60605","addr:state":"IL","addr:street":"South Wabash Avenue","amenity":"restaurant","cuisine":"pizza","name":"Flo & Santos","phone":"+1-312-566-9817","website":"https://floandsantos.com/"}},{"type":"node","id":6291485654,"lat":41.8383786,"lon":-87.6343653,"tags":{"addr:city":"Chicago","addr:housenumber":"300","addr:postcode":"60616","addr:state":"IL","addr:street":"West 31st Street","amenity":"restaurant","cuisine":"italian","name":"Franco\u2019s Ristorante","phone":"+1-312-225-9566","website":"https://www.francoschicago.com/"}},{"type":"node","id":6291886315,"lat":41.8510926,"lon":-87.6325921,"tags":{"addr:city":"Chicago","addr:housenumber":"212","addr:postcode":"60616","addr:state":"IL","addr:street":"West 23rd Street","amenity":"restaurant","cuisine":"chinese","name":"Go 4 Food","phone":"+1-312-842-8688","website":"https://www.go4foodusa.com/"}},{"type":"node","id":6300420956,"lat":41.8531267,"lon":-87.6330669,"tags":{"addr:city":"Chicago","addr:housenumber":"232","addr:postcode":"60616","addr:state":"IL","addr:street":"West Cermak Road","amenity":"restaurant","check_date":"2025-08-30","cuisine":"vietnamese","name":"Pho Cafe","phone":"+1-312-600-9636","website":"http://www.phocafechicago.com/"}},{"type":"node","id":6301765417,"lat":41.8347452,"lon":-87.6325776,"tags":{"addr:city":"Chicago","addr:housenumber":"220","addr:postcode":"60616","addr:state":"IL","addr:street":"West 33rd Street","amenity":"restaurant","check_date":"2025-01-05","name":"Stix n Brix Wood Fired Pizza","phone":"+1-312-265-0219","website":"https://srg33.com/stix-n-brix/"}},{"type":"node","id":6303115375,"lat":41.8610689,"lon":-87.6279127,"tags":{"addr:city":"Chicago","addr:housenumber":"1530","addr:postcode":"60605","addr:state":"IL","addr:street":"South State Street","amenity":"restaurant","name":"Tapas Valencia","phone":"+1-312-842-4444","website":"https://www.tapasvalencia.com/"}},{"type":"node","id":6304139897,"lat":41.8526562,"lon":-87.6244084,"tags":{"addr:city":"Chicago","addr:housenumber":"67","addr:postcode":"60616","addr:state":"IL","addr:street":"East Cermak Road","amenity":"restaurant","contact:facebook":"https://www.facebook.com/profile.php?id=100063708696947","contact:instagram":"windycityribsandwhiskey","cuisine":"barbecue","name":"Windy City Ribs & Whiskey","opening_hours":"Su-Th 16:00-24:00; Fr 16:00-02:00; Sa 16:00-03:00","phone":"+1 312 794 5901","website":"https://windycityribs.net/"}},{"type":"node","id":6317098450,"lat":41.8499366,"lon":-87.632402,"tags":{"addr:city":"Chicago","addr:country":"US","addr:housenumber":"2334","addr:postcode":"60616","addr:state":"IL","addr:street":"South Wentworth Avenue","addr:unit":"105","amenity":"restaurant","check_date":"2025-04-21","cuisine":"chinese","name":"Yummy Yummy Noodles","phone":"+1-312-842-9880","website":"https://www.yummyyummynoodles.com/"}},{"type":"node","id":6319021010,"lat":41.8540741,"lon":-87.6338755,"tags":{"addr:city":"Chicago","addr:housenumber":"2139","addr:postcode":"60616","addr:state":"IL","addr:street":"South China Place","amenity":"restaurant","check_date":"2025-08-27","cuisine":"chinese","name":"Joy Yee Noodle","payment:cash":"yes","payment:credit_cards":"yes","payment:debit_cards":"yes","phone":"+1-312-328-0001","website":"https://joyyee.com/","wheelchair":"yes"}},{"type":"node","id":6319137801,"lat":41.8661492,"lon":-87.6268823,"tags":{"addr:city":"Chicago","addr:housenumber":"1255","addr:postcode":"60605","addr:state":"IL","addr:street":"South State Street","amenity":"restaurant","cuisine":"sushi","name":"Kai Sushi","name:en":"Kai Sushi","opening_hours":"Mo-Su 11:30-21:00","phone":"+1-312-583-0567","website":"http://orderkaisushi.com/"}},{"type":"node","id":6320260910,"lat":41.8551965,"lon":-87.6320105,"tags":{"addr:city":"Chicago","addr:housenumber":"2002","addr:postcode":"60616","addr:state":"IL","addr:street":"South Wentworth Avenue","amenity":"restaurant","check_date":"2025-08-27","cuisine":"chinese","name":"Qing Xiang Yuan Dumplings","opening_hours":"Mo-Su 11:30-21:00","payment:cash":"yes","payment:credit_cards":"yes","payment:debit_cards":"yes","phone":"+1-312-799-1118","website":"https://qxydumplings.com/","wheelchair":"yes"}},{"type":"node","id":6320547862,"lat":41.8506027,"lon":-87.6321516,"tags":{"addr:city":"Chicago","addr:country":"US","addr:housenumber":"2310","addr:postcode":"60616","addr:state":"IL","addr:street":"South Wentworth Avenue","amenity":"restaurant","brand":"Happy Lamb Hot Pot","brand:en":"Happy Lamb Hot Pot","brand:wikidata":"Q123091978","brand:zh":"\u5feb\u4e50\u5c0f\u7f8a","contact:yelp":"https://www.yelp.com/biz/happy-lamb-hot-pot-chicago","cuisine":"mongolian;hot_pot","name":"Happy Lamb Hot Pot","name:en":"Happy Lamb Hot Pot","name:zh":"\u5feb\u4e50\u5c0f\u7f8a","phone":"+1-312-929-3224"}},{"type":"node","id":6320662138,"lat":41.868272,"lon":-87.6260778,"tags":{"addr:city":"Chicago","addr:housenumber":"1132","addr:postcode":"60605","addr:state":"IL","addr:street":"South Wabash Avenue","amenity":"restaurant","name":"Lowcountry South Loop","phone":"+1-888-883-8375","website":"https://www.lowcountrychicago.com/"}},{"type":"node","id":6321621334,"lat":41.8538972,"lon":-87.63369,"tags":{"addr:city":"Chicago","addr:housenumber":"2138","addr:postcode":"60616","addr:state":"IL","addr:street":"South Archer Avenue","amenity":"restaurant","cuisine":"chinese","name":"MCCB Chicago","opening_hours":"Su-Th 11:00-22:00, Fr-Sa 11:00-23:00","phone":"+1-312-881-0168","website":"https://www.mccbchicago.com/"}},{"type":"node","id":6321945044,"lat":41.8539444,"lon":-87.6203557,"tags":{"addr:city":"Chicago","addr:housenumber":"2121","addr:postcode":"60616","addr:state":"IL","addr:street":"South Prairie Avenue","amenity":"restaurant","name":"Showroom Food Hall","phone":"+1-312-824-0500","website":"https://www.marriott.com/hotels/hotel-information/restaurant/chimq-marriott-marquis-chicago/"}},{"type":"node","id":6324385413,"lat":41.8533254,"lon":-87.635011,"tags":{"addr:city":"Chicago","addr:housenumber":"2172","addr:postcode":"60616","addr:state":"IL","addr:street":"South Archer Avenue","amenity":"restaurant","cuisine":"chinese","name":"Lao Sze Chuan","phone":"+1-312-326-5040","website":"https://pos.chowbus.com/online-ordering/store/lao-sze-chuan-Chinatown/21378"}},{"type":"node","id":6328357234,"lat":41.802335,"lon":-87.6192115,"tags":{"addr:city":"Chicago","addr:housenumber":"5059","addr:postcode":"60615","addr:state":"IL","addr:street":"South Prairie Avenue","amenity":"restaurant","cuisine":"belgian","name":"Friistyle"}},{"type":"node","id":6328357236,"lat":41.8019361,"lon":-87.6196353,"tags":{"addr:city":"Chicago","addr:housenumber":"235","addr:postcode":"60615","addr:state":"IL","addr:street":"East 51st Street","amenity":"restaurant","name":"Skidoe's Caf\u00e9 & Grill"}},{"type":"node","id":6646187181,"lat":41.8560708,"lon":-87.6274177,"tags":{"addr:city":"Chicago","addr:housenumber":"1906","addr:postcode":"60616","addr:state":"IL","addr:street":"South State Street","amenity":"restaurant","check_date":"2024-03-24","cuisine":"chinese","name":"My Place","opening_hours":"Su-Sa 11:00-21:00"}},{"type":"node","id":6663059208,"lat":41.8545987,"lon":-87.6324113,"tags":{"amenity":"restaurant","cuisine":"chinese;cantonese;dim_sum","level":"1","name":"Cai Restaurant","opening_hours":"Mo-Fr 09:00-23:00; Sa,Su 08:00-23:00","phone":"+1-312-326-6888","website":"http://www.cairestaurant.com/"}},{"type":"node","id":6726359269,"lat":41.8487356,"lon":-87.631759,"tags":{"addr:city":"Chicago","addr:country":"US","addr:housenumber":"2411","addr:postcode":"60616","addr:state":"IL","addr:street":"South Wentworth Avenue","amenity":"restaurant","cuisine":"chinese","name":"Evergreen Restaurant"}},{"type":"node","id":6726359270,"lat":41.8486556,"lon":-87.6320627,"tags":{"addr:city":"Chicago","addr:country":"US","addr:housenumber":"2414","addr:postcode":"60616","addr:state":"IL","addr:street":"South Wentworth Avenue","amenity":"restaurant","cuisine":"chinese","name":"Sze Chuan Cuisine","phone":"+1-312-791-1882","website":"https://www.szechuancuisinetogo.com/"}},{"type":"node","id":6726359272,"lat":41.8483799,"lon":-87.632058,"tags":{"addr:city":"Chicago","addr:country":"US","addr:housenumber":"2422","addr:postcode":"60616","addr:state":"IL","addr:street":"South Wentworth Avenue","amenity":"restaurant","cuisine":"chinese","name":"Tai Ho Yee Food Company","phone":"+1-312-225-9828"}},{"type":"node","id":7940235322,"lat":41.851089,"lon":-87.6324764,"tags":{"addr:city":"Chicago","addr:housenumber":"210","addr:postcode":"60616","addr:state":"IL","addr:street":"West 23rd Street","amenity":"restaurant","cuisine":"chinese","name":"Gourmet Food Inc","phone":"+1-312-842-3366"}},{"type":"node","id":7940235323,"lat":41.8508515,"lon":-87.6321136,"tags":{"addr:city":"Chicago","addr:housenumber":"2300","addr:postcode":"60616","addr:state":"IL","addr:street":"South Wentworth Avenue","amenity":"restaurant","cuisine":"chinese","name":"China Cafe","phone":"+1-312-808-0202"}},{"type":"node","id":8092911417,"lat":41.8645673,"lon":-87.6243724,"tags":{"addr:city":"Chicago","addr:housenumber":"1340","addr:postcode":"60605","addr:state":"IL","addr:street":"South Michigan Avenue","amenity":"restaurant","brand":"Giordano's Pizzeria","brand:wikidata":"Q5563393","cuisine":"pizza","name":"Giordano's Pizzeria","website":"https://giordanos.com/locations/south-loop/"}},{"type":"node","id":8092911418,"lat":41.854131,"lon":-87.6225109,"tags":{"addr:city":"Chicago","addr:housenumber":"2106","addr:postcode":"60616","addr:state":"IL","addr:street":"South Indiana Avenue","amenity":"restaurant","cuisine":"pizza","name":"Pizano's Pizza","website":"https://www.pizanoschicago.com/locations/by-mccormick-place/"}},{"type":"node","id":8604294601,"lat":41.8170758,"lon":-87.6069248,"tags":{"addr:city":"Chicago","addr:housenumber":"4248","addr:postcode":"60653","addr:state":"IL","addr:street":"South Cottage Grove Avenue","amenity":"restaurant","cuisine":"southern","name":"Cleo's Southern Cuisine","phone":"+1-773-575-7120","website":"http://www.cleossoutherncuisine.com/"}},{"type":"node","id":8604294602,"lat":41.8162363,"lon":-87.6065093,"tags":{"addr:city":"Chicago","addr:housenumber":"4317","addr:postcode":"60653","addr:state":"IL","addr:street":"South Cottage Grove Avenue","amenity":"restaurant","cuisine":"surf_&_turf;steak_house;seafood","name":"Surf's Up Bronzeville","phone":"+1-773-420-3228","website":"https://surfsupbronzeville.com"}},{"type":"node","id":8677975849,"lat":41.8143543,"lon":-87.6069291,"tags":{"addr:city":"Chicago","addr:housenumber":"4420","addr:postcode":"60653","addr:state":"IL","addr:street":"South Cottage Grove Avenue","amenity":"restaurant","craft":"winery","name":"Bronzeville Winery","website":"https://www.bronzevillewinery.com/"}},{"type":"node","id":9330687317,"lat":41.8543426,"lon":-87.6332809,"tags":{"addr:city":"Chicago","addr:housenumber":"2129","addr:postcode":"60616","addr:state":"IL","addr:street":"South China Place","amenity":"restaurant","cuisine":"chinese","name":"Ken Kee Restaurant"}},{"type":"node","id":9382808617,"lat":41.8665598,"lon":-87.6243562,"tags":{"amenity":"restaurant","cuisine":"chinese","name":"Minghin"}},{"type":"node","id":10052778453,"lat":41.838425,"lon":-87.6325479,"tags":{"addr:city":"Chicago","addr:housenumber":"220","addr:postcode":"60616","addr:state":"IL","addr:street":"West 31st Street","amenity":"restaurant","cuisine":"chinese","name":"Dragon Bowl","phone":"+1-312-949-1988","website":"https://dragonbowl-chicago.com"}},{"type":"node","id":10583112892,"lat":41.8519483,"lon":-87.6322068,"tags":{"addr:city":"Chicago","addr:housenumber":"2230","addr:postcode":"60616","addr:state":"IL","addr:street":"South Wentworth Avenue","amenity":"restaurant","cuisine":"noodle","name":"Daiquan Noodles"}},{"type":"node","id":10651020905,"lat":41.8546012,"lon":-87.6328454,"tags":{"addr:city":"Chicago","addr:housenumber":"2109","addr:postcode":"60616","addr:state":"IL","addr:street":"South China Place","amenity":"restaurant","check_date:opening_hours":"2025-07-08","contact:facebook":"veggiehousechicago","contact:instagram":"veggiehousechicago","cuisine":"chinese","diet:vegan":"yes","diet:vegetarian":"only","name":"Veggie House","opening_hours":"Su-Mo,We-Th 11:30-21:00; Fr-Sa 11:30-22:00","payment:credit_cards":"yes","payment:debit_cards":"yes","phone":"+1 312-326-9966","toilets":"yes","toilets:access":"customers","website":"https://veggiehouseusa.com","website:menu":"https://www.veggiehouseusa.com/Menus"}},{"type":"node","id":10722510306,"lat":41.8562986,"lon":-87.6235836,"tags":{"addr:city":"Chicago","addr:housenumber":"1911","addr:postcode":"60616","addr:state":"IL","addr:street":"South Michigan Avenue","amenity":"restaurant","cuisine":"mexican","name":"La Cantina Bar & Grill","phone":"+1 312-842-1911","website":"https://www.lacantinagrill.com/"}},{"type":"node","id":10833615531,"lat":41.8562178,"lon":-87.6274256,"tags":{"addr:city":"Chicago","addr:housenumber":"1900","addr:postcode":"60616","addr:state":"IL","addr:street":"South State Street","amenity":"restaurant","check_date":"2024-03-24","cuisine":"burger","delivery":"yes","diet:chicken":"yes","diet:gluten_free":"yes","diet:organic":"yes","diet:vegan":"yes","diet:vegetarian":"yes","name":"Burger Point","phone":"+1-312-842-1900","website":"https://www.yelp.com/biz/the-burger-point-chicago"}},{"type":"node","id":10836410547,"lat":41.854599,"lon":-87.6303833,"tags":{"addr:city":"Chicago","addr:housenumber":"2026","addr:postcode":"60616","addr:state":"IL","addr:street":"South Clark Street","addr:unit":"D;E","amenity":"restaurant","check_date":"2025-05-18","cuisine":"chinese","name":"Aroma Hot Pot"}},{"type":"node","id":10895115125,"lat":41.8325884,"lon":-87.6164715,"tags":{"addr:city":"Chicago","addr:housenumber":"3401","addr:postcode":"60616","addr:state":"IL","addr:street":"South Doctor Martin Luther King Junior Drive","amenity":"restaurant","branch":"Bronzeville","brand":"Home Run Inn","brand:wikidata":"Q16995746","cuisine":"pizza","name":"Home Run Inn Pizzeria","website":"https://www.homeruninnpizza.com/restaurants/bronzeville/"}},{"type":"node","id":10907150800,"lat":41.82361,"lon":-87.6228545,"tags":{"addr:city":"Chicago","addr:housenumber":"3901","addr:postcode":"60653","addr:state":"IL","addr:street":"South Michigan Avenue","amenity":"restaurant","cuisine":"soul_food","name":"Pearl's Place Restaurant","website":"https://www.pearlsplacerestaurant.com/"}},{"type":"node","id":11065147596,"lat":41.8679773,"lon":-87.6260656,"tags":{"addr:city":"Chicago","addr:housenumber":"1144","addr:postcode":"60605","addr:state":"IL","addr:street":"South Wabash Avenue","amenity":"restaurant","brand":"Jet's Pizza","brand:wikidata":"Q16997713","cuisine":"pizza","name":"Jet's Pizza"}},{"type":"node","id":11070227607,"lat":41.794795,"lon":-87.6005079,"tags":{"addr:city":"Chicago","addr:housenumber":"1055","addr:postcode":"60615","addr:state":"IL","addr:street":"East 55th Street","amenity":"restaurant","cuisine":"southern","name":"Roux","opening_hours":"Tu-We 07:00-14:30, Th-Sa 07:00-21:00, Su 07:00-14:30","phone":"+1-773-770-4785","website":"https://rouxdiner.com/"}},{"type":"node","id":11165208421,"lat":41.8025724,"lon":-87.6071417,"tags":{"amenity":"restaurant","name":"Sharks Fish & Chicken"}},{"type":"node","id":11165334305,"lat":41.8691366,"lon":-87.6256838,"tags":{"amenity":"restaurant","cuisine":"asian;chinese;noodles","name":"Shang Noodle"}},{"type":"node","id":11365170353,"lat":41.8521374,"lon":-87.6318572,"tags":{"addr:city":"Chicago","addr:housenumber":"2225","addr:postcode":"60616","addr:state":"IL","addr:street":"South Wentworth Avenue","amenity":"restaurant","cuisine":"chinese","name":"May Flower"}},{"type":"node","id":11365170357,"lat":41.853892,"lon":-87.633808,"tags":{"addr:city":"Chicago","addr:floor":"1","addr:housenumber":"2140","addr:postcode":"60616","addr:state":"IL","addr:street":"South Archer Avenue","amenity":"restaurant","check_date":"2025-04-07","cuisine":"chinese","level":"0","name":"Hing Kee","website":"https://www.hingkeechinatown.com/"}},{"type":"node","id":11432437276,"lat":41.8097016,"lon":-87.6030587,"tags":{"amenity":"restaurant","cuisine":"asian","name":"De Rice"}},{"type":"node","id":11753769952,"lat":41.8453079,"lon":-87.6326696,"tags":{"addr:city":"Chicago","addr:housenumber":"225","addr:postcode":"60616","addr:state":"IL","addr:street":"West 26th Street","amenity":"restaurant","cuisine":"chinese","name":"Grand Palace","phone":"+13122253888"}},{"type":"node","id":11759257309,"lat":41.8557795,"lon":-87.6274007,"tags":{"addr:city":"Chicago","addr:housenumber":"1924","addr:postcode":"60616","addr:state":"IL","addr:street":"South State Street","amenity":"restaurant","check_date":"2025-11-08","cuisine":"italian","name":"Cafe Bionda","opening_hours":"Su-Th 16:00-23:00; Fr-Sa 16:00-00:00","phone":"+1 312-846-1901","website":"https://cafebiondasouthloop.com/"}},{"type":"node","id":11874910270,"lat":41.8526394,"lon":-87.6235723,"tags":{"addr:city":"Chicago","addr:housenumber":"105","addr:postcode":"60616","addr:state":"IL","addr:street":"East Cermak Road","amenity":"restaurant","cuisine":"mediterranean","name":"Apolonia","website":"https://www.apoloniachicago.com/"}},{"type":"node","id":12078881524,"lat":41.8652058,"lon":-87.6255408,"tags":{"addr:city":"Chicago","addr:housenumber":"1315","addr:postcode":"60605","addr:state":"IL","addr:street":"South Wabash Avenue","amenity":"restaurant","check_date":"2025-06-29","cuisine":"hawaiian","name":"AO Hawaiian Hideout","payment:cash":"yes","payment:credit_cards":"yes","payment:debit_cards":"yes","phone":"+13126621100","website":"https://www.aohawaiianhideout.com/"}},{"type":"node","id":12099314355,"lat":41.8526392,"lon":-87.6318274,"tags":{"addr:city":"Chicago","addr:housenumber":"2201","addr:postcode":"60616","addr:state":"IL","addr:street":"South Wentworth Avenue","addr:unit":"1","amenity":"restaurant","brand":"\u5c0f\u9f99\u574e\u706b\u9505","brand:en":"XiaoLongKan","brand:wikidata":"Q108212427","brand:zh":"\u5c0f\u9f99\u574e\u706b\u9505","cuisine":"chinese;hot_pot","name":"Shoo Loong Kan","name:en":"Shoo Loong Kan","name:zh":"\u5c0f\u9f99\u574e\u706b\u9505","website":"https://hotpotchicago.com/"}},{"type":"node","id":12140556517,"lat":41.8547712,"lon":-87.632573,"tags":{"addr:city":"Chicago","addr:housenumber":"2017","addr:postcode":"60616","addr:state":"IL","addr:street":"South Wells Street","amenity":"restaurant","branch":"Chinatown","cuisine":"korean","name":"Daebak","name:kr":"\ub300\ubc15","website":"https://www.daebakchinatown.com/"}},{"type":"node","id":12140556518,"lat":41.8546697,"lon":-87.6326695,"tags":{"addr:city":"Chicago","addr:housenumber":"2101","addr:postcode":"60616","addr:state":"IL","addr:street":"South China Place","amenity":"restaurant","branch":"Chinatown","cuisine":"korean","name":"So Gong Dong Korean Tofu & BBQ","website":"https://www.sgdrestaurant.com/"}},{"type":"node","id":12165979676,"lat":41.8311848,"lon":-87.62142,"tags":{"addr:city":"Chicago","addr:housenumber":"206","addr:postcode":"60616","addr:state":"IL","addr:street":"East 35th Street","amenity":"restaurant","cuisine":"jamaican","name":"Jamaican Jerk King"}},{"type":"node","id":12736555636,"lat":41.8534866,"lon":-87.6331025,"tags":{"addr:city":"Chicago","addr:floor":"1","addr:housenumber":"2131","addr:postcode":"60616","addr:state":"IL","addr:street":"South Archer Avenue","amenity":"restaurant","check_date":"2025-04-07","cuisine":"sushi","level":"0","name":"Sushi Plus Rotary Sushi Bar"}},{"type":"node","id":12736555638,"lat":41.8534051,"lon":-87.633326,"tags":{"addr:city":"Chicago","addr:floor":"1","addr:housenumber":"2143","addr:postcode":"60616","addr:state":"IL","addr:street":"South Archer Avenue","amenity":"restaurant","check_date":"2025-04-07","cuisine":"chinese","level":"0","name":"Chef Xiong Taste of Sichuan"}},{"type":"node","id":12737670243,"lat":41.8530324,"lon":-87.6326395,"tags":{"addr:city":"Chicago","addr:housenumber":"218","addr:postcode":"60616","addr:state":"IL","addr:street":"West Cermak Road","amenity":"restaurant","cuisine":"korean","name":"Ahjoomah's Apron","opening_hours":"Su-Th 11:00-21:30; Fr-Sa 11:00-22:00","phone":"+1 312-326-2800","website":"https://www.ahjoomahchicago.com/"}},{"type":"node","id":12844322256,"lat":41.801709,"lon":-87.6223522,"tags":{"amenity":"restaurant","cuisine":"chinese","name":"Little Wok"}},{"type":"node","id":12847579468,"lat":41.8547443,"lon":-87.6304681,"tags":{"addr:city":"Chicago","addr:floor":"1","addr:housenumber":"2026","addr:postcode":"60616","addr:state":"IL","addr:street":"South Clark Street","addr:unit":"G","amenity":"restaurant","brand":"bb.q Chicken","brand:wikidata":"Q87716489","check_date":"2025-05-18","cuisine":"korean;chicken","level":"0","name":"bb.q Chicken"}},{"type":"node","id":12954454441,"lat":41.8384445,"lon":-87.6374754,"tags":{"amenity":"restaurant","check_date":"2025-06-25","cuisine":"sushi;chinese","name":"Chinese Kitchen Sushi Grill"}},{"type":"node","id":12954454442,"lat":41.8514721,"lon":-87.6386813,"tags":{"amenity":"restaurant","check_date":"2025-06-25","cuisine":"ramen","name":"Kuro Ramen"}},{"type":"node","id":12964880901,"lat":41.8549554,"lon":-87.632255,"tags":{"addr:housenumber":"2002","addr:postcode":"60616","addr:street":"South Wentworth Avenue","amenity":"restaurant","cuisine":"chinese","name":"Noodleverse","name:zh":"\u9762\u516b\u65b9","opening_hours":"Mo-Th 10:00-20:00; Fr-Su 10:00-20:30","website":"http://noodleverseil.com"}},{"type":"node","id":12964893501,"lat":41.8515082,"lon":-87.6318557,"tags":{"addr:housenumber":"2247","addr:postcode":"60616","addr:street":"South Wentworth Avenue","amenity":"restaurant","cuisine":"chinese","name":"Slurp Slurp Noodles","name:zh":"\u6797\u8bb0\u5170\u5dde\u62c9\u9762","opening_hours":"Su-Tu, Th 10:30-18:30; Fr-Sa 10:30-21:00","phone":"+1-312-982-2969","website":"https://www.slurpslurpnoodles.com/"}},{"type":"node","id":12972298888,"lat":41.8589458,"lon":-87.6241593,"tags":{"addr:city":"Chicago","addr:housenumber":"1700","addr:postcode":"60616","addr:state":"IL","addr:street":"South Michigan Avenue","amenity":"restaurant","cuisine":"mexican","name":"Casa Tulum","opening_hours":"Mo-Su 11:00-21:00; Fr,Sa 11:00-22:00","phone":"+1-773-759-1429","website":"https://www.casatulumchicago.com/"}},{"type":"node","id":12987076501,"lat":41.8531236,"lon":-87.6329984,"tags":{"addr:housenumber":"228","addr:postcode":"60616","addr:street":"West Cermak Road","amenity":"restaurant","check_date":"2025-08-30","cuisine":"chinese","name":"Dongpo Impression","name:zh":"\u4e1c\u5761\u5370\u8c61","opening_hours":"Mo-Su 11:00-21:30","phone":"+1-312-842-7818","website":"http://dongpoimpression.com"}},{"type":"node","id":12993686102,"lat":41.8493041,"lon":-87.6323741,"tags":{"addr:housenumber":"208","addr:postcode":"60616","addr:street":"West 24th Street","amenity":"restaurant","cuisine":"chinese","name":"HuaFeng Restaurant","name:zh":"\u534e\u4e30\u9910\u5385","opening_hours":"Mo-Sa 08:00-19:00","website":"http://huafengrestaurant.com"}},{"type":"node","id":13009875101,"lat":41.8534978,"lon":-87.6346227,"tags":{"addr:housenumber":"2162","addr:postcode":"60616","addr:street":"South Archer Avenue","amenity":"restaurant","cuisine":"japanese","name":"Chubby Cattle BBQ","name:zh":"\u725b\u6b66\u58eb","opening_hours":"Fr-Su 12:00-00:00; Mo-Th 17:00-23:00","phone":"+1-773-451-9398","website":"https://www.chubbycattle.com/"}},{"type":"node","id":13021644901,"lat":41.8093263,"lon":-87.6097295,"tags":{"addr:city":"Chicago","addr:housenumber":"641","addr:postcode":"60653","addr:state":"IL","addr:street":"East 47th Street","amenity":"restaurant","cuisine":"seafood","name":"Two Fish Crab Shack","website":"https://www.twofishcrabshack.com/"}},{"type":"node","id":13110944990,"lat":41.8530203,"lon":-87.6334811,"tags":{"addr:housenumber":"242","addr:street":"West Cermak Road","amenity":"restaurant","check_date":"2025-08-30","cuisine":"chinese","name":"Golden Bull Restaurant"}},{"type":"node","id":13290058869,"lat":41.8544484,"lon":-87.6240891,"tags":{"addr:city":"Chicago","addr:housenumber":"2036","addr:postcode":"60616","addr:state":"IL","addr:street":"South Michigan Avenue","amenity":"restaurant","name":"Brulee","opening_hours":"Th-Tu 08:00-16:00","website":"https://bruleechicago.com/"}},{"type":"node","id":13290063391,"lat":41.8553414,"lon":-87.6257988,"tags":{"addr:city":"Chicago","addr:housenumber":"2000","addr:postcode":"60616","addr:state":"IL","addr:street":"South Wabash Avenue","amenity":"restaurant","name":"Southern Chicago","phone":"+1 312-818-2000","website":"https://www.southernchicagorestaurant.com/"}},{"type":"node","id":13290117249,"lat":41.8531472,"lon":-87.6224772,"tags":{"addr:city":"Chicago","addr:housenumber":"2134","addr:postcode":"60616","addr:state":"IL","addr:street":"South Indiana Avenue","amenity":"restaurant","cuisine":"italian","name":"Il Culaccino","website":"https://ilculaccino.com/"}},{"type":"node","id":13290117250,"lat":41.8556676,"lon":-87.6220311,"tags":{"addr:city":"Chicago","addr:housenumber":"1933","addr:postcode":"60616","addr:state":"IL","addr:street":"South Indiana Avenue","amenity":"restaurant","name":"Chicago Oyster House","phone":"+1 312-225-8833","website":"https://www.chicagooysterhouse.com/"}},{"type":"node","id":13290160974,"lat":41.8653091,"lon":-87.6260392,"tags":{"addr:city":"Chicago","addr:housenumber":"1312","addr:postcode":"60605","addr:state":"IL","addr:street":"South Wabash Avenue","amenity":"restaurant","name":"Signature Steak","phone":"+1 773-572-1622","website":"https://www.signaturesteak.com/"}},{"type":"node","id":13290160975,"lat":41.8656246,"lon":-87.6239139,"tags":{"addr:city":"Chicago","addr:housenumber":"1303","addr:postcode":"60605","addr:state":"IL","addr:street":"South Michigan Avenue","amenity":"restaurant","check_date":"2025-12-30","cuisine":"sushi","name":"Sumi Japanese Restaurant","phone":"+1 312-465-2695","website":"https://mysumisushi.com/"}},{"type":"node","id":13290160976,"lat":41.865687,"lon":-87.6239148,"tags":{"addr:city":"Chicago","addr:housenumber":"1301","addr:postcode":"60605","addr:state":"IL","addr:street":"South Michigan Avenue","amenity":"restaurant","check_date":"2025-12-30","cuisine":"indian","name":"Nepal House","phone":"+1 312-922-0601","website":"https://nepalhouseonline.com/"}},{"type":"node","id":13290173044,"lat":41.863641,"lon":-87.6242583,"tags":{"addr:city":"Chicago","addr:housenumber":"1400","addr:postcode":"60605","addr:state":"IL","addr:street":"South Michigan Avenue","amenity":"restaurant","name":"Chicago Waffles","phone":"+1 312-854-8572","website":"https://www.chicagowaffles.com/south-loop/"}},{"type":"node","id":13293612474,"lat":41.8638155,"lon":-87.6242818,"tags":{"addr:city":"Chicago","addr:housenumber":"1400","addr:postcode":"60605","addr:state":"IL","addr:street":"South Michigan Avenue","amenity":"restaurant","name":"Mikami","phone":"+1 312-763-8132","website":"https://www.mikamichicago.com/"}},{"type":"node","id":13293612477,"lat":41.8649381,"lon":-87.6239081,"tags":{"addr:city":"Chicago","addr:housenumber":"1329","addr:postcode":"60605","addr:state":"IL","addr:street":"South Michigan Avenue","amenity":"restaurant","name":"Siam Thai Eatery","phone":"+1 312-763-6193","website":"https://siamthaieatery.com/chicago/"}},{"type":"way","id":157657353,"center":{"lat":41.8360394,"lon":-87.6255357},"nodes":[1699189730,1699189684,1699189687,1699189680,1699189710,1699189728,1699189730],"tags":{"addr:city":"Chicago","addr:housenumber":"3201","addr:postcode":"60616","addr:state":"IL","addr:street":"South State Street","amenity":"restaurant","building":"university","name":"The Commons","operator":"Chartwells"}},{"type":"way","id":210526771,"center":{"lat":41.8240835,"lon":-87.6227362},"nodes":[2206127140,2206127138,2206127318,2206127322,2206127140],"tags":{"addr:city":"Chicago","addr:housenumber":"3851","addr:postcode":"60653","addr:state":"IL","addr:street":"South Michigan Avenue","addr:street:name":"Michigan","addr:street:prefix":"South","addr:street:type":"Avenue","amenity":"restaurant","building":"retail","chicago:building_id":"886140","cuisine":"barbecue","name":"Chicago Rib House"}},{"type":"way","id":210538066,"center":{"lat":41.8517414,"lon":-87.6322653},"nodes":[2206208636,2206208641,2206208466,2206208459,2206208477,2206208469,2206208628,2206208636],"tags":{"addr:city":"Chicago","addr:housenumber":"2238","addr:postcode":"60616","addr:state":"IL","addr:street":"South Wentworth Avenue","addr:street:name":"Wentworth","addr:street:prefix":"South","addr:street:type":"Avenue","amenity":"restaurant","building":"yes","building:levels":"3","chicago:building_id":"870627","cuisine":"chinese","name":"Emperor's Choice","website":"https://www.emperorschoicerestaurant.com/"}},{"type":"way","id":210538091,"center":{"lat":41.8516116,"lon":-87.6322643},"nodes":[2206208373,2206208377,2206208314,2206208310,2206208308,2206208372,2206208373],"tags":{"addr:city":"Chicago","addr:housenumber":"2242","addr:postcode":"60616","addr:state":"IL","addr:street":"South Wentworth Avenue","addr:street:name":"Wentworth","addr:street:prefix":"South","addr:street:type":"Avenue","amenity":"restaurant","building":"yes","building:levels":"1","chicago:building_id":"870623","cuisine":"chinese","name":"Legend Tasty House","phone":"+1-312-225-8869","website":"https://www.legendtastyhouse.com/"}},{"type":"way","id":210539517,"center":{"lat":41.8526421,"lon":-87.6251103},"nodes":[2206210018,2206210017,2206210069,2206210072,2206210018],"tags":{"addr:city":"Chicago","addr:housenumber":"49","addr:postcode":"60616","addr:state":"IL","addr:street":"East Cermak Road","addr:street:name":"Cermak","addr:street:prefix":"East","addr:street:type":"Road","amenity":"restaurant","building":"retail","chicago:building_id":"881882","name":"Mustard Seed Kitchen"}},{"type":"way","id":210541840,"center":{"lat":41.8675363,"lon":-87.6389686},"nodes":[2206241002,2206241005,5913542435,2206241006,2206241008,2206241007,2206241000,2206240989,2206240990,2206241002],"tags":{"addr:city":"Chicago","addr:housenumber":"1159","addr:postcode":"60607","addr:state":"IL","addr:street":"South Canal Street","addr:street:name":"Canal","addr:street:prefix":"South","addr:street:type":"Street","amenity":"restaurant","building":"retail","chicago:building_id":"834523","cuisine":"diner","name":"White Palace Grill","website":"https://www.whitepalacegrill.com/"}},{"type":"way","id":210542186,"center":{"lat":41.8639623,"lon":-87.6236971},"nodes":[2206239147,2206239261,2206239262,2206239148,2206239147],"tags":{"addr:city":"Chicago","addr:housenumber":"1401","addr:postcode":"60605","addr:state":"IL","addr:street":"South Michigan Avenue","addr:street:name":"Michigan","addr:street:prefix":"South","addr:street:type":"Avenue","amenity":"restaurant","building":"fire_station","building:levels":"2","chicago:building_id":"373810","name":"The Chicago Firehouse Restaurant","phone":"+1-312-786-1401","website":"https://www.chicagofirehouse.com/"}},{"type":"way","id":879392183,"center":{"lat":41.8534067,"lon":-87.633211},"nodes":[8180577391,8180577392,8180577393,8180577394,8180577391],"tags":{"addr:city":"Chicago","addr:housenumber":"2141","addr:postcode":"60616","addr:state":"IL","addr:street":"South Archer Avenue","amenity":"restaurant","building":"retail","check_date":"2025-04-07","cuisine":"japanese","delivery":"yes","name":"Strings Ramen","smoking":"no","takeaway":"yes"}},{"type":"way","id":913227380,"center":{"lat":41.8681001,"lon":-87.6134235},"nodes":[8483285728,8483285929,8483285928,8477472817,8483285730,8483332917,8483332918,8483333017,7158943938,8483333018,8483333019,8483332818,8483333117,8483332919,8483285728],"tags":{"amenity":"restaurant","level":"0","name":"Soundings caf\u00e9"}},{"type":"way","id":1297181772,"center":{"lat":41.8346377,"lon":-87.6043025},"nodes":[12018570697,12018570698,12018570699,12018570700,12018570701,12018570702,12018570697],"tags":{"amenity":"restaurant","building":"yes"}},{"type":"way","id":1483956927,"center":{"lat":41.8697662,"lon":-87.6323555},"nodes":[13606728529,11224180347,13606728534,13606728532,13606728533,1961538037,13606728530,13606728529],"tags":{"addr:city":"Chicago","addr:housenumber":"1005","addr:postcode":"60605","addr:state":"IL","addr:street":"South Delano Court","addr:unit":"F126C","amenity":"restaurant","brand":"Nando's","brand:wikidata":"Q3472954","building":"yes","cuisine":"chicken;portuguese","level":"5","name":"Nando's","website":"https://www.nandosperiperi.com/find/south-loop/"}},{"type":"way","id":1483956936,"center":{"lat":41.8676585,"lon":-87.6319378},"nodes":[13606728567,13606728568,13606728421,1961538195,5913260819,1961537706,1961537708,1961537693,13606728569,13606728567],"tags":{"amenity":"restaurant","building":"yes","level":"5","name":"Wagyu House"}}]